Date,iso3,Continent,CountryName,lat,lon,CumulativePositive,CumulativeDeceased,CumulativeRecovered,CurrentlyPositive,Hospitalized,IntensiveCare,NUTS
31/1/2021,AFG,AS,Afghanistan,33.930445,67.678945,55023,2400,0,52623,0,0,AF
31/1/2021,ALB,EU,Albania,41.156986,20.181222,78127,1380,47424,29323,324,19,AL
31/1/2021,DZA,AF,Algeria,28.026875,1.65284,107122,2888,0,104234,0,0,DZ
31/1/2021,AND,EU,Andorra,42.542268,1.596865,9937,101,0,9836,44,0,AD
31/1/2021,AGO,AF,Angola,-11.209451,17.880669,19782,464,0,19318,0,0,AO
31/1/2021,AIA,NA,Anguilla,18.225119,-63.07213,17,0,0,17,0,0,AI
31/1/2021,ATG,NA,Antigua and Barbuda,17.363183,-61.789423,218,7,0,211,0,0,AG
31/1/2021,ARG,SA,Argentina,-38.421295,-63.587403,1915362,47775,0,1867587,0,0,AR
31/1/2021,ARM,AS,Armenia,40.066181,45.111108,167026,3080,0,163946,0,0,AM
31/1/2021,ABW,NA,Aruba,12.517713,-69.965112,6858,58,0,6800,0,0,AW
31/1/2021,AUS,OC,Australia,-26.853388,133.275154,28806,909,0,27897,0,0,AU
31/1/2021,AUT,EU,Austria,47.697542,13.349319,411921,7710,383153,21058,1387,297,AT
31/1/2021,AUT,EU,Austria,47.697542,13.349319,411513,7850,383158,20505,0,0,AT
31/1/2021,AZE,AS,Azerbaijan,40.147396,47.572098,229935,3119,0,226816,0,0,AZ
31/1/2021,BHS,NA,Bahamas,24.885993,-76.709892,8174,176,0,7998,0,0,BS
31/1/2021,BHR,AS,Bahrain,26.039722,50.559306,102626,372,0,102254,0,0,BH
31/1/2021,BGD,AS,Bangladesh,23.68764,90.351002,535139,8127,0,527012,0,0,BD
31/1/2021,BRB,NA,Barbados,13.18355,-59.534649,1498,12,0,1486,0,0,BB
31/1/2021,BLR,EU,Belarus,53.711111,27.973847,248336,1718,0,246618,0,0,BY
31/1/2021,BEL,EU,Belgium,50.499527,4.475402,711417,21118,0,690299,1788,315,BE
31/1/2021,BLZ,NA,Belize,17.192929,-88.5009,11877,301,0,11576,0,0,BZ
31/1/2021,BEN,AF,Benin,9.322048,2.313138,3786,48,0,3738,0,0,BJ
31/1/2021,BMU,NA,Bermuda,32.320236,-64.774022,691,12,0,679,0,0,BM
31/1/2021,BTN,AS,Bhutan,27.515709,90.442455,859,1,0,858,0,0,BT
31/1/2021,BWA,AF,Botswana,-22.344029,24.680158,21293,134,0,21159,0,0,BW
31/1/2021,BRA,SA,Brazil,-14.242915,-53.189267,9118513,222666,0,8895847,0,0,BR
31/1/2021,VGB,NA,British Virgin Islands,18.573601,-64.492065,141,1,0,140,0,0,VG
31/1/2021,BGR,EU,Bulgaria,42.729862,25.491667,218618,9028,0,209590,0,0,BG
31/1/2021,BFA,AF,Burkina Faso,12.24185,-1.55676,10580,120,0,10460,0,0,BF
31/1/2021,BDI,AF,Burundi,-3.387918,29.920395,1632,2,0,1630,0,0,BI
31/1/2021,CPV,AF,Cabo Verde,16.0026,-24.014095,13981,133,0,13848,0,0,CV
31/1/2021,KHM,AS,Cambodia,12.54775,104.98386,465,0,0,465,0,0,KH
31/1/2021,CMR,AF,Cameroon,7.365302,12.343439,29617,462,0,29155,0,0,CM
31/1/2021,CAN,NA,Canada,62.393303,-96.818145,770793,19801,0,750992,0,0,CA
31/1/2021,CYM,NA,Cayman Islands,19.512365,-80.580025,390,2,0,388,0,0,KY
31/1/2021,CAF,AF,Central African Republic,6.614041,20.941759,4981,63,0,4918,0,0,CF
31/1/2021,TCD,AF,Chad,15.445718,18.738068,3347,118,0,3229,0,0,TD
31/1/2021,CHL,SA,Chile,-36.711951,-73.601704,722900,18339,0,704561,0,0,CL
31/1/2021,CHN,AS,China,34.668138,104.165802,100877,4823,0,96054,0,0,CN
31/1/2021,COL,SA,Colombia,4.577317,-74.298973,2077633,53284,0,2024349,0,0,CO
31/1/2021,COM,AF,Comoros,-11.875119,43.877007,2718,90,0,2628,0,0,KM
31/1/2021,CRI,NA,Costa Rica,9.624897,-84.253308,193276,2604,0,190672,0,0,CR
31/1/2021,HRV,EU,Croatia,44.48732,16.460306,232426,5027,0,227399,0,0,HR
31/1/2021,CUB,NA,Cuba,21.527062,-79.544601,25674,213,0,25461,0,0,CU
31/1/2021,CUW,NA,Curaçao,12.209208,-68.945576,4574,20,0,4554,0,0,CW
31/1/2021,CYP,EU,Cyprus,35.167406,33.435499,30996,246,0,30750,842,0,CY
31/1/2021,CZE,EU,Czech Republic,49.800901,15.478153,987329,16392,875313,95624,0,0,CZ
31/1/2021,DJI,AF,Djibouti,11.808375,42.595222,5931,62,0,5869,0,0,DJ
31/1/2021,DMA,NA,Dominica,15.416749,-61.36413,117,0,0,117,0,0,DM
31/1/2021,DOM,NA,Dominican Republic,18.736509,-70.161744,212553,2646,0,209907,0,0,DO
31/1/2021,ECU,SA,Ecuador,-1.779901,-78.131592,249779,14851,0,234928,0,0,EC
31/1/2021,EGY,AF,Egypt,26.696362,30.246486,165418,9263,0,156155,0,0,EG
31/1/2021,SLV,NA,El Salvador,13.796873,-88.910412,53989,1614,0,52375,0,0,SV
31/1/2021,GNQ,AF,Equatorial Guinea,1.633925,10.341295,5516,86,0,5430,0,0,GQ
31/1/2021,ERI,AF,Eritrea,15.18132,39.786709,2135,7,0,2128,0,0,ER
31/1/2021,EST,EU,Estonia,58.596209,25.023778,44208,419,0,43789,0,0,EE
31/1/2021,ETH,AF,Ethiopia,9.148086,40.493059,137021,2091,0,134930,0,0,ET
31/1/2021,FLK,SA,Falkland Islands (Malvinas),-51.800581,-59.528839,40,0,0,40,0,0,FK
31/1/2021,FJI,OC,Fiji,-16.578041,178.416339,55,2,0,53,0,0,FJ
31/1/2021,FIN,EU,Finland,64.952416,26.068944,45238,677,0,44561,0,0,FI
31/1/2021,FRA,EU,France,46.232193,2.209667,3114542,75466,0,3039076,0,0,FR
31/1/2021,GUF,SA,French Guiana,3.951795,-53.07823,16083,76,0,16007,0,0,0
31/1/2021,PYF,OC,French Polynesia,-17.778572,-143.903496,18060,131,0,17929,0,0,PF
31/1/2021,GAB,AF,Gabon,-0.828097,11.598909,10748,68,0,10680,0,0,GA
31/1/2021,GMB,AF,Gambia,13.445411,-15.311436,4090,128,0,3962,0,0,GM
31/1/2021,GEO,AS,Georgia,42.319847,43.368055,258111,3178,0,254933,0,0,GE
31/1/2021,DEU,EU,Germany,51.165706,10.452764,2216363,56945,1921700,237718,0,0,DE
31/1/2021,GHA,AF,Ghana,7.955012,-1.03182,65427,405,0,65022,0,0,GH
31/1/2021,GIB,EU,Gibraltar,36.132235,-5.352273,4088,73,0,4015,0,0,GI
31/1/2021,GRC,EU,Greece,38.275283,23.810343,156473,5779,0,150694,0,0,EL
31/1/2021,GRL,NA,Greenland,71.702379,-42.177174,30,0,0,30,0,0,0
31/1/2021,GRD,NA,Grenada,12.152588,-61.689557,148,1,0,147,0,0,GD
31/1/2021,GLP,NA,Guadeloupe,16.192207,-61.272382,9156,157,0,8999,0,0,0
31/1/2021,GUM,OC,Guam,13.446472,144.786613,7379,129,0,7250,0,0,GU
31/1/2021,GTM,NA,Guatemala,15.776261,-90.229744,159118,5618,0,153500,0,0,GT
31/1/2021,GGY,EU,Guernsey,49.575693,-2.42318,449,16,0,433,0,0,GG
31/1/2021,GIN,AF,Guinea,9.934887,-11.283845,14475,82,0,14393,0,0,GN
31/1/2021,GUY,SA,Guyana,4.866324,-58.932507,7528,175,0,7353,0,0,GY
31/1/2021,HTI,NA,Haiti,19.054426,-73.045971,11533,245,0,11288,0,0,HT
31/1/2021,VAT,EU,Holy See,41.903859,12.452041,26,0,0,26,0,0,0
31/1/2021,HND,NA,Honduras,14.746333,-86.253097,146110,3575,0,142535,0,0,HN
31/1/2021,HUN,EU,Hungary,47.164638,19.508944,367586,12524,262968,92094,3562,268,HU
31/1/2021,ISL,EU,Iceland,64.963942,-19.021169,6002,29,0,5973,0,0,IS
31/1/2021,IND,AS,India,21.125681,82.794998,10746183,154274,0,10591909,0,0,IN
31/1/2021,IDN,AS,Indonesia,-2.518722,118.015568,1078314,29998,0,1048316,0,0,ID
31/1/2021,IRQ,AS,Iraq,33.223737,43.685901,618922,13041,0,605881,0,0,IQ
31/1/2021,IRL,EU,Ireland,53.41975,-8.240472,196547,3307,0,193240,11004,1198,IE
31/1/2021,IMN,EU,Isle of Man,54.23782,-4.555111,434,25,0,409,0,0,IM
31/1/2021,ISR,AS,Israel,31.418388,35.073541,640857,4767,0,636090,0,0,IL
31/1/2021,ITA,EU,Italy,41.873987,12.564167,2553032,88516,2010548,453968,22311,2215,IT
31/1/2021,JAM,NA,Jamaica,18.115265,-77.27348,15527,348,0,15179,0,0,JM
31/1/2021,JPN,AS,Japan,34.886306,134.379711,386742,5654,0,381088,0,0,JP
31/1/2021,JEY,EU,Jersey,49.217445,-2.141056,3143,66,0,3077,0,0,JE
31/1/2021,JOR,AS,Jordan,31.276778,37.130583,325674,4304,0,321370,0,0,JO
31/1/2021,KAZ,AS,Kazakhstan,48.193764,66.902264,235844,3126,0,232718,0,0,KZ
31/1/2021,KEN,AF,Kenya,0.170945,37.903969,100675,1755,0,98920,0,0,KE
31/1/2021,KWT,AS,Kuwait,29.310278,47.493515,164622,959,0,163663,0,0,KW
31/1/2021,KGZ,AS,Kyrgyzstan,41.205528,74.779888,84529,1412,0,83117,0,0,KG
31/1/2021,LVA,EU,Latvia,56.875584,24.607722,66241,1195,0,65046,0,0,LV
31/1/2021,LBN,AS,Lebanon,33.872639,35.876736,298913,3031,0,295882,0,0,LB
31/1/2021,LSO,AF,Lesotho,-29.620511,28.247414,8278,160,0,8118,0,0,LS
31/1/2021,LBR,AF,Liberia,6.452424,-9.428598,1939,84,0,1855,0,0,LR
31/1/2021,LBY,AF,Libya,26.338522,17.268816,117650,1842,0,115808,0,0,LY
31/1/2021,LIE,EU,Liechtenstein,47.164696,9.555,2565,53,0,2512,0,0,LI
31/1/2021,LTU,EU,Lithuania,55.174112,23.906736,182893,2825,129269,50799,0,0,LT
31/1/2021,LUX,EU,Luxembourg,49.815764,6.131514,50733,584,0,50149,0,0,LU
31/1/2021,MDG,AF,Madagascar,-18.777192,46.854328,18743,279,0,18464,0,0,MG
31/1/2021,MWI,AF,Malawi,-13.24627,34.295385,23497,687,0,22810,0,0,MW
31/1/2021,MYS,AS,Malaysia,4.109319,109.455475,209661,746,0,208915,0,0,MY
31/1/2021,MDV,AS,Maldives,3.202833,73.165249,15841,52,0,15789,0,0,MV
31/1/2021,MLI,AF,Mali,17.579757,-3.998823,8069,330,0,7739,0,0,ML
31/1/2021,MLT,EU,Malta,35.946151,14.384612,17903,267,14960,2676,0,0,MT
31/1/2021,MHL,OC,Marshall Islands,10.10382,168.728363,4,0,0,4,0,0,0
31/1/2021,MTQ,NA,Martinique,14.635541,-61.022814,6370,44,0,6326,0,0,0
31/1/2021,MRT,AF,Mauritania,21.00681,-10.947098,16460,418,0,16042,0,0,MR
31/1/2021,MUS,AF,Mauritius,-15.422486,60.006449,568,10,0,558,0,0,MU
31/1/2021,MYT,AF,Mayotte,-12.824511,45.165455,8231,61,0,8170,0,0,0
31/1/2021,MEX,NA,Mexico,23.624813,-102.57867,1841893,156579,0,1685314,0,0,MX
31/1/2021,MDA,EU,Moldova,46.979527,28.377195,159804,3438,150090,6276,0,0,MD
31/1/2021,MCO,EU,Monaco,43.738348,7.424451,1478,12,0,1466,0,0,MC
31/1/2021,MNG,AS,Mongolia,46.860945,103.836986,1742,2,0,1740,0,0,MN
31/1/2021,MNE,EU,Montenegro,42.710152,19.410069,61659,805,0,60854,311,0,ME
31/1/2021,MSR,NA,Montserrat,16.749415,-62.192741,13,1,0,12,0,0,MS
31/1/2021,MAR,AF,Morocco,31.792306,-7.080168,470691,8259,0,462432,0,0,MA
31/1/2021,MOZ,AF,Mozambique,-18.670284,35.530157,37705,363,0,37342,0,0,MZ
31/1/2021,NAM,AF,Namibia,-22.965662,18.486165,33828,350,0,33478,0,0,NA
31/1/2021,NPL,AS,Nepal,28.395056,84.127803,270959,2962,0,267997,0,0,NP
31/1/2021,NLD,EU,Netherlands,52.133057,5.29525,978475,13998,0,964477,22455,0,NL
31/1/2021,NCL,OC,New Caledonia,-21.123889,165.846901,47,0,0,47,0,0,NC
31/1/2021,NZL,OC,New Zealand,-40.9006,174.886,1947,25,0,1922,0,0,NZ
31/1/2021,NIC,NA,Nicaragua,12.866726,-85.214298,4992,169,0,4823,0,0,NI
31/1/2021,NER,AF,Niger,17.611,8.080946,4516,159,0,4357,0,0,NE
31/1/2021,NGA,AF,Nigeria,9.084575,8.674252,130557,1578,0,128979,0,0,NG
31/1/2021,MKD,EU,North Macedonia,41.611,21.751417,92518,2848,0,89670,0,0,MK
31/1/2021,OMN,AS,Oman,21.516861,55.859291,133728,1527,0,132201,0,0,OM
31/1/2021,PAK,AS,Pakistan,30.441861,69.359766,543214,11623,0,531591,0,0,PK
31/1/2021,PAN,NA,Panama,8.41771,-80.112777,318253,5221,0,313032,0,0,PA
31/1/2021,PNG,OC,Papua New Guinea,-6.48825,148.403152,851,9,0,842,0,0,PG
31/1/2021,PRY,SA,Paraguay,-23.451389,-58.453215,131886,2693,0,129193,0,0,PY
31/1/2021,PER,SA,Peru,-9.181352,-75.002365,1125875,102859,0,1023016,0,0,PE
31/1/2021,PHL,AS,Philippines,12.881958,121.76654,523515,10669,0,512846,0,0,PH
31/1/2021,PRT,EU,Portugal,39.553444,-7.839319,711018,12179,0,698839,0,0,PT
31/1/2021,PRI,NA,Puerto Rico,18.223285,-66.592731,93406,1823,0,91583,0,0,PR
31/1/2021,QAT,AS,Qatar,25.318833,51.19693,150984,248,0,150736,0,0,QA
31/1/2021,REU,AF,Réunion,-21.114533,55.532062,9996,46,0,9950,0,0,0
31/1/2021,ROU,EU,Romania,45.947125,24.980514,727485,18335,0,709150,0,0,RO
31/1/2021,RUS,EU,Russian Fed.,61.523111,-74.9,3850439,73182,0,3777257,0,0,RU
31/1/2021,RWA,AF,Rwanda,-1.94708,29.876376,15118,193,0,14925,0,0,RW
31/1/2021,KNA,NA,Saint Kitts and Nevis,17.257731,-62.706413,37,0,0,37,0,0,KN
31/1/2021,LCA,NA,Saint Lucia,13.904011,-60.974176,1195,13,0,1182,0,0,LC
31/1/2021,SPM,NA,Saint Pierre and Miquelon,46.966164,-56.336825,24,0,0,24,0,0,0
31/1/2021,VCT,NA,Saint Vincent and the Grenadines,12.980909,-61.287392,896,2,0,894,0,0,VC
31/1/2021,WSM,OC,Samoa,-13.736573,-172.10717,1,0,0,1,0,0,0
31/1/2021,SMR,EU,San Marino,43.942973,12.460035,3025,67,0,2958,0,0,SM
31/1/2021,STP,AF,Sao Tome and Principe,0.863044,6.968272,1256,17,0,1239,0,0,ST
31/1/2021,SAU,AS,Saudi Arabia,23.886291,45.081139,367813,6372,0,361441,0,0,SA
31/1/2021,SEN,AF,Senegal,14.499454,-14.445562,26213,621,0,25592,0,0,SN
31/1/2021,SRB,EU,Serbia,44.206802,20.911009,393897,4000,0,389897,0,0,RS
31/1/2021,SYC,AF,Seychelles,-7.018792,51.242138,1186,3,0,1183,0,0,SC
31/1/2021,SLE,AF,Sierra Leone,8.464806,-11.795935,3528,79,0,3449,0,0,SL
31/1/2021,SGP,AS,Singapore,1.364917,103.822872,59507,29,0,59478,0,0,SG
31/1/2021,SVK,EU,Slovakia,48.665639,19.709097,249913,4642,216052,29219,3556,273,SK
31/1/2021,SVN,EU,Slovenia,46.145528,14.974541,165946,3522,8635,153789,1066,169,SI
31/1/2021,SLB,OC,Solomon Islands,-9.220083,161.244735,17,0,0,17,0,0,SB
31/1/2021,SOM,AF,Somalia,5.152149,46.199616,4784,130,0,4654,0,0,SO
31/1/2021,ZAF,AF,South Africa,-28.48322,24.676997,1449236,43951,0,1405285,0,0,ZA
31/1/2021,SSD,AF,South Sudan,7.856272,30.040413,3961,64,0,3897,0,0,SS
31/1/2021,LKA,AS,Sri Lanka,7.874097,80.767098,64157,316,0,63841,0,0,LK
31/1/2021,SDN,AF,Sudan,15.45847,30.217636,29449,1807,0,27642,0,0,SD
31/1/2021,SUR,SA,Suriname,3.917846,-56.032028,8364,154,0,8210,0,0,SR
31/1/2021,CHE,EU,Switzerland,46.815514,8.224472,519844,9528,72772,437544,1267,233,CH
31/1/2021,SYR,AS,Syrian Arab Republic,34.814902,39.056126,13998,916,0,13082,0,0,SY
31/1/2021,TJK,AS,Tajikistan,38.858194,71.26218,13714,91,0,13623,0,0,TJ
31/1/2021,THA,AS,Thailand,13.036597,101.492515,18782,77,0,18705,0,0,TH
31/1/2021,TGO,AF,Togo,8.621697,0.829685,5041,77,0,4964,0,0,TG
31/1/2021,TTO,NA,Trinidad and Tobago,10.687223,-61.220852,7533,134,0,7399,0,0,TT
31/1/2021,TUN,AF,Tunisia,33.892166,9.561556,207468,6680,0,200788,0,0,TN
31/1/2021,TUR,AS,Turkey,38.961516,35.25175,2470901,25865,0,2445036,0,0,TR
31/1/2021,TCA,NA,Turks and Caicos Islands,21.692252,-71.803756,1459,8,0,1451,0,0,TC
31/1/2021,UGA,AF,Uganda,1.365188,32.304651,39533,324,0,39209,0,0,UG
31/1/2021,UKR,EU,Ukraine,48.379888,31.168139,1219455,22707,0,1196748,0,0,UA
31/1/2021,ARE,AS,United Arab Emirates,24.358745,53.982494,300661,838,0,299823,0,0,AE
31/1/2021,GBR,EU,United Kingdom,54.633221,-3.432277,3817176,106158,0,3711018,0,0,UK
31/1/2021,USA,NA,United States of America,36.966428,-95.844032,25797002,443691,0,25353311,0,0,US
31/1/2021,VIR,NA,United States Virgin Islands,18.036736,-64.801704,2398,24,0,2374,0,0,VI
31/1/2021,URY,SA,Uruguay,-32.53152,-55.758328,40529,425,0,40104,0,0,UY
31/1/2021,UZB,AS,Uzbekistan,41.379722,64.564459,78711,621,0,78090,0,0,UZ
31/1/2021,VUT,OC,Vanuatu,-16.661195,168.214882,1,0,0,1,0,0,VU
31/1/2021,YEM,AS,Yemen,15.555545,48.531539,2124,616,0,1508,0,0,YE
31/1/2021,ZMB,AF,Zambia,-13.151917,27.852537,53352,745,0,52607,0,0,ZM
31/1/2021,ZWE,AF,Zimbabwe,-19.013286,29.146667,33271,1193,0,32078,0,0,ZW
28/2/2021,AFG,AS,Afghanistan,33.930445,67.678945,55714,2443,0,53271,0,0,AF
28/2/2021,ALB,EU,Albania,41.156986,20.181222,107167,1796,69773,35598,613,49,AL
28/2/2021,DZA,AF,Algeria,28.026875,1.65284,112960,2979,0,109981,0,0,DZ
28/2/2021,AND,EU,Andorra,42.542268,1.596865,10866,110,0,10756,21,0,AD
28/2/2021,AGO,AF,Angola,-11.209451,17.880669,20782,506,0,20276,0,0,AO
28/2/2021,AIA,NA,Anguilla,18.225119,-63.07213,18,0,0,18,0,0,AI
28/2/2021,ATG,NA,Antigua and Barbuda,17.363183,-61.789423,726,14,0,712,0,0,AG
28/2/2021,ARG,SA,Argentina,-38.421295,-63.587403,2104197,51946,0,2052251,0,0,AR
28/2/2021,ARM,AS,Armenia,40.066181,45.111108,172058,3192,0,168866,0,0,AM
28/2/2021,ABW,NA,Aruba,12.517713,-69.965112,7804,71,0,7733,0,0,AW
28/2/2021,AUS,OC,Australia,-26.853388,133.275154,28965,909,0,28056,0,0,AU
28/2/2021,AUT,EU,Austria,47.697542,13.349319,456318,8548,420209,27561,0,0,AT
28/2/2021,AUT,EU,Austria,47.697542,13.349319,456538,8430,420332,27776,1022,283,AT
28/2/2021,AZE,AS,Azerbaijan,40.147396,47.572098,233989,3213,0,230776,0,0,AZ
28/2/2021,BHS,NA,Bahamas,24.885993,-76.709892,8542,180,0,8362,0,0,BS
28/2/2021,BHR,AS,Bahrain,26.039722,50.559306,121778,444,0,121334,0,0,BH
28/2/2021,BGD,AS,Bangladesh,23.68764,90.351002,546216,8408,0,537808,0,0,BD
28/2/2021,BRB,NA,Barbados,13.18355,-59.534649,2994,33,0,2961,0,0,BB
28/2/2021,BLR,EU,Belarus,53.711111,27.973847,287306,1976,0,285330,0,0,BY
28/2/2021,BEL,EU,Belgium,50.499527,4.475402,771511,22077,0,749434,1898,408,BE
28/2/2021,BLZ,NA,Belize,17.192929,-88.5009,12293,314,0,11979,0,0,BZ
28/2/2021,BEN,AF,Benin,9.322048,2.313138,5634,70,0,5564,0,0,BJ
28/2/2021,BMU,NA,Bermuda,32.320236,-64.774022,705,12,0,693,0,0,BM
28/2/2021,BTN,AS,Bhutan,27.515709,90.442455,867,1,0,866,0,0,BT
28/2/2021,BWA,AF,Botswana,-22.344029,24.680158,28370,310,0,28060,0,0,BW
28/2/2021,BRA,SA,Brazil,-14.242915,-53.189267,10455630,252835,0,10202795,0,0,BR
28/2/2021,VGB,NA,British Virgin Islands,18.573601,-64.492065,153,1,0,152,0,0,VG
28/2/2021,BGR,EU,Bulgaria,42.729862,25.491667,246706,10167,0,236539,0,0,BG
28/2/2021,BFA,AF,Burkina Faso,12.24185,-1.55676,11982,142,0,11840,0,0,BF
28/2/2021,BDI,AF,Burundi,-3.387918,29.920395,2209,3,0,2206,0,0,BI
28/2/2021,CPV,AF,Cabo Verde,16.0026,-24.014095,15324,147,0,15177,0,0,CV
28/2/2021,KHM,AS,Cambodia,12.54775,104.98386,805,0,0,805,0,0,KH
28/2/2021,CMR,AF,Cameroon,7.365302,12.343439,33749,523,0,33226,0,0,CM
28/2/2021,CAN,NA,Canada,62.393303,-96.818145,861472,21915,0,839557,0,0,CA
28/2/2021,CYM,NA,Cayman Islands,19.512365,-80.580025,438,2,0,436,0,0,KY
28/2/2021,CAF,AF,Central African Republic,6.614041,20.941759,4997,63,0,4934,0,0,CF
28/2/2021,TCD,AF,Chad,15.445718,18.738068,3973,140,0,3833,0,0,TD
28/2/2021,CHL,SA,Chile,-36.711951,-73.601704,821418,20476,0,800942,0,0,CL
28/2/2021,CHN,AS,China,34.668138,104.165802,101878,4843,0,97035,0,0,CN
28/2/2021,COL,SA,Colombia,4.577317,-74.298973,2244792,59518,0,2185274,0,0,CO
28/2/2021,COM,AF,Comoros,-11.875119,43.877007,3571,144,0,3427,0,0,KM
28/2/2021,CRI,NA,Costa Rica,9.624897,-84.253308,204341,2800,0,201541,0,0,CR
28/2/2021,HRV,EU,Croatia,44.48732,16.460306,242973,5526,0,237447,0,0,HR
28/2/2021,CUB,NA,Cuba,21.527062,-79.544601,49161,318,0,48843,0,0,CU
28/2/2021,CUW,NA,Curaçao,12.209208,-68.945576,4708,22,0,4686,0,0,CW
28/2/2021,CYP,EU,Cyprus,35.167406,33.435499,35009,281,0,34728,934,0,CY
28/2/2021,CZE,EU,Czech Republic,49.800901,15.478153,1240051,20469,1070622,148960,0,0,CZ
28/2/2021,DJI,AF,Djibouti,11.808375,42.595222,6065,63,0,6002,0,0,DJ
28/2/2021,DMA,NA,Dominica,15.416749,-61.36413,142,0,0,142,0,0,DM
28/2/2021,DOM,NA,Dominican Republic,18.736509,-70.161744,239009,3093,0,235916,0,0,DO
28/2/2021,ECU,SA,Ecuador,-1.779901,-78.131592,282599,15713,0,266886,0,0,EC
28/2/2021,EGY,AF,Egypt,26.696362,30.246486,181829,10639,0,171190,0,0,EG
28/2/2021,SLV,NA,El Salvador,13.796873,-88.910412,59866,1847,0,58019,0,0,SV
28/2/2021,GNQ,AF,Equatorial Guinea,1.633925,10.341295,6005,91,0,5914,0,0,GQ
28/2/2021,ERI,AF,Eritrea,15.18132,39.786709,2847,7,0,2840,0,0,ER
28/2/2021,EST,EU,Estonia,58.596209,25.023778,65600,589,0,65011,0,0,EE
28/2/2021,ETH,AF,Ethiopia,9.148086,40.493059,158053,2354,0,155699,0,0,ET
28/2/2021,FLK,SA,Falkland Islands (Malvinas),-51.800581,-59.528839,51,0,0,51,0,0,FK
28/2/2021,FJI,OC,Fiji,-16.578041,178.416339,59,2,0,57,0,0,FJ
28/2/2021,FIN,EU,Finland,64.952416,26.068944,57672,750,0,56922,0,0,FI
28/2/2021,FRA,EU,France,46.232193,2.209667,3595472,85872,0,3509600,0,0,FR
28/2/2021,GUF,SA,French Guiana,3.951795,-53.07823,16627,85,0,16542,0,0,0
28/2/2021,PYF,OC,French Polynesia,-17.778572,-143.903496,18387,139,0,18248,0,0,PF
28/2/2021,GAB,AF,Gabon,-0.828097,11.598909,14564,83,0,14481,0,0,GA
28/2/2021,GMB,AF,Gambia,13.445411,-15.311436,4691,148,0,4543,0,0,GM
28/2/2021,GEO,AS,Georgia,42.319847,43.368055,270758,3510,0,267248,0,0,GE
28/2/2021,DEU,EU,Germany,51.165706,10.452764,2442336,70045,2248400,123891,0,0,DE
28/2/2021,GHA,AF,Ghana,7.955012,-1.03182,82586,594,0,81992,0,0,GH
28/2/2021,GIB,EU,Gibraltar,36.132235,-5.352273,4228,92,0,4136,0,0,GI
28/2/2021,GRC,EU,Greece,38.275283,23.810343,189831,6468,0,183363,0,0,EL
28/2/2021,GRL,NA,Greenland,71.702379,-42.177174,30,0,0,30,0,0,0
28/2/2021,GRD,NA,Grenada,12.152588,-61.689557,148,1,0,147,0,0,GD
28/2/2021,GLP,NA,Guadeloupe,16.192207,-61.272382,9968,164,0,9804,0,0,0
28/2/2021,GUM,OC,Guam,13.446472,144.786613,7526,131,0,7395,0,0,GU
28/2/2021,GTM,NA,Guatemala,15.776261,-90.229744,174335,6374,0,167961,0,0,GT
28/2/2021,GGY,EU,Guernsey,49.575693,-2.42318,819,17,0,802,0,0,GG
28/2/2021,GIN,AF,Guinea,9.934887,-11.283845,15894,89,0,15805,0,0,GN
28/2/2021,GUY,SA,Guyana,4.866324,-58.932507,8513,195,0,8318,0,0,GY
28/2/2021,HTI,NA,Haiti,19.054426,-73.045971,12430,250,0,12180,0,0,HT
28/2/2021,VAT,EU,Holy See,41.903859,12.452041,26,0,0,26,0,0,0
28/2/2021,HND,NA,Honduras,14.746333,-86.253097,168911,4117,0,164794,0,0,HN
28/2/2021,HUN,EU,Hungary,47.164638,19.508944,428599,14974,321128,92497,5482,524,HU
28/2/2021,ISL,EU,Iceland,64.963942,-19.021169,6049,29,0,6020,0,0,IS
28/2/2021,IND,AS,India,21.125681,82.794998,11096731,157051,0,10939680,0,0,IN
28/2/2021,IDN,AS,Indonesia,-2.518722,118.015568,1334634,36166,0,1298468,0,0,ID
28/2/2021,IRQ,AS,Iraq,33.223737,43.685901,692241,13383,0,678858,0,0,IQ
28/2/2021,IRL,EU,Ireland,53.41975,-8.240472,219952,4319,0,215633,12687,1341,IE
28/2/2021,IMN,EU,Isle of Man,54.23782,-4.555111,475,25,0,450,0,0,IM
28/2/2021,ISR,AS,Israel,31.418388,35.073541,774431,5744,0,768687,0,0,IL
28/2/2021,ITA,EU,Italy,41.873987,12.564167,2925265,97699,2405199,422367,20869,2231,IT
28/2/2021,JAM,NA,Jamaica,18.115265,-77.27348,22817,417,0,22400,0,0,JM
28/2/2021,JPN,AS,Japan,34.886306,134.379711,431740,7860,0,423880,0,0,JP
28/2/2021,JEY,EU,Jersey,49.217445,-2.141056,3215,69,0,3146,0,0,JE
28/2/2021,JOR,AS,Jordan,31.276778,37.130583,386496,4675,0,381821,0,0,JO
28/2/2021,KAZ,AS,Kazakhstan,48.193764,66.902264,262725,3389,0,259336,0,0,KZ
28/2/2021,KEN,AF,Kenya,0.170945,37.903969,105648,1854,0,103794,0,0,KE
28/2/2021,KWT,AS,Kuwait,29.310278,47.493515,189890,1078,0,188812,0,0,KW
28/2/2021,KGZ,AS,Kyrgyzstan,41.205528,74.779888,86229,1464,0,84765,0,0,KG
28/2/2021,LVA,EU,Latvia,56.875584,24.607722,86186,1618,0,84568,0,0,LV
28/2/2021,LBN,AS,Lebanon,33.872639,35.876736,372775,4652,0,368123,0,0,LB
28/2/2021,LSO,AF,Lesotho,-29.620511,28.247414,10491,292,0,10199,0,0,LS
28/2/2021,LBR,AF,Liberia,6.452424,-9.428598,2010,85,0,1925,0,0,LR
28/2/2021,LBY,AF,Libya,26.338522,17.268816,132458,2174,0,130284,0,0,LY
28/2/2021,LIE,EU,Liechtenstein,47.164696,9.555,2648,55,0,2593,0,0,LI
28/2/2021,LTU,EU,Lithuania,55.174112,23.906736,199398,3253,184848,11297,0,0,LT
28/2/2021,LUX,EU,Luxembourg,49.815764,6.131514,55480,640,0,54840,0,0,LU
28/2/2021,MDG,AF,Madagascar,-18.777192,46.854328,19831,297,0,19534,0,0,MG
28/2/2021,MWI,AF,Malawi,-13.24627,34.295385,31798,1037,0,30761,0,0,MW
28/2/2021,MYS,AS,Malaysia,4.109319,109.455475,298315,1121,0,297194,0,0,MY
28/2/2021,MDV,AS,Maldives,3.202833,73.165249,19793,62,0,19731,0,0,MV
28/2/2021,MLI,AF,Mali,17.579757,-3.998823,8365,352,0,8013,0,0,ML
28/2/2021,MLT,EU,Malta,35.946151,14.384612,22482,315,19447,2720,0,0,MT
28/2/2021,MHL,OC,Marshall Islands,10.10382,168.728363,4,0,0,4,0,0,0
28/2/2021,MTQ,NA,Martinique,14.635541,-61.022814,6746,45,0,6701,0,0,0
28/2/2021,MRT,AF,Mauritania,21.00681,-10.947098,17179,439,0,16740,0,0,MR
28/2/2021,MUS,AF,Mauritius,-15.422486,60.006449,610,10,0,600,0,0,MU
28/2/2021,MYT,AF,Mayotte,-12.824511,45.165455,16861,102,0,16759,0,0,0
28/2/2021,MEX,NA,Mexico,23.624813,-102.57867,2076882,184474,0,1892408,0,0,MX
28/2/2021,MDA,EU,Moldova,46.979527,28.377195,185453,3949,166178,15326,0,0,MD
28/2/2021,MCO,EU,Monaco,43.738348,7.424451,1952,24,0,1928,0,0,MC
28/2/2021,MNG,AS,Mongolia,46.860945,103.836986,2866,2,0,2864,0,0,MN
28/2/2021,MNE,EU,Montenegro,42.710152,19.410069,75833,1003,0,74830,457,0,ME
28/2/2021,MSR,NA,Montserrat,16.749415,-62.192741,20,1,0,19,0,0,MS
28/2/2021,MAR,AF,Morocco,31.792306,-7.080168,483410,8615,0,474795,0,0,MA
28/2/2021,MOZ,AF,Mozambique,-18.670284,35.530157,58772,630,0,58142,0,0,MZ
28/2/2021,NAM,AF,Namibia,-22.965662,18.486165,38644,418,0,38226,0,0,NA
28/2/2021,NPL,AS,Nepal,28.395056,84.127803,274143,3007,0,271136,0,0,NP
28/2/2021,NLD,EU,Netherlands,52.133057,5.29525,1088690,15563,0,1073127,24228,0,NL
28/2/2021,NCL,OC,New Caledonia,-21.123889,165.846901,58,0,0,58,0,0,NC
28/2/2021,NZL,OC,New Zealand,-40.9006,174.886,2020,26,0,1994,0,0,NZ
28/2/2021,NIC,NA,Nicaragua,12.866726,-85.214298,5142,173,0,4969,0,0,NI
28/2/2021,NER,AF,Niger,17.611,8.080946,4740,172,0,4568,0,0,NE
28/2/2021,NGA,AF,Nigeria,9.084575,8.674252,155417,1905,0,153512,0,0,NG
28/2/2021,MKD,EU,North Macedonia,41.611,21.751417,102482,3126,0,99356,0,0,MK
28/2/2021,OMN,AS,Oman,21.516861,55.859291,140588,1562,0,139026,0,0,OM
28/2/2021,PAK,AS,Pakistan,30.441861,69.359766,578797,12837,0,565960,0,0,PK
28/2/2021,PAN,NA,Panama,8.41771,-80.112777,339781,5820,0,333961,0,0,PA
28/2/2021,PNG,OC,Papua New Guinea,-6.48825,148.403152,1295,13,0,1282,0,0,PG
28/2/2021,PRY,SA,Paraguay,-23.451389,-58.453215,157603,3152,0,154451,0,0,PY
28/2/2021,PER,SA,Peru,-9.181352,-75.002365,1316363,121260,0,1195103,0,0,PE
28/2/2021,PHL,AS,Philippines,12.881958,121.76654,574239,12289,0,561950,0,0,PH
28/2/2021,POL,EU,Poland,51.92275,19.136875,1706986,43769,1422829,240388,0,0,PL
28/2/2021,PRT,EU,Portugal,39.553444,-7.839319,803844,16276,0,787568,0,0,PT
28/2/2021,PRI,NA,Puerto Rico,18.223285,-66.592731,100044,2032,0,98012,0,0,PR
28/2/2021,QAT,AS,Qatar,25.318833,51.19693,163197,257,0,162940,0,0,QA
28/2/2021,REU,AF,Réunion,-21.114533,55.532062,12416,52,0,12364,0,0,0
28/2/2021,ROU,EU,Romania,45.947125,24.980514,801994,20350,0,781644,0,0,RO
28/2/2021,RUS,EU,Russian Fed.,61.523111,-74.9,4246079,86122,0,4159957,0,0,RU
28/2/2021,RWA,AF,Rwanda,-1.94708,29.876376,18790,261,0,18529,0,0,RW
28/2/2021,KNA,NA,Saint Kitts and Nevis,17.257731,-62.706413,41,0,0,41,0,0,KN
28/2/2021,LCA,NA,Saint Lucia,13.904011,-60.974176,3356,35,0,3321,0,0,LC
28/2/2021,SPM,NA,Saint Pierre and Miquelon,46.966164,-56.336825,24,0,0,24,0,0,0
28/2/2021,VCT,NA,Saint Vincent and the Grenadines,12.980909,-61.287392,1556,8,0,1548,0,0,VC
28/2/2021,WSM,OC,Samoa,-13.736573,-172.10717,1,0,0,1,0,0,0
28/2/2021,SMR,EU,San Marino,43.942973,12.460035,3716,74,0,3642,0,0,SM
28/2/2021,STP,AF,Sao Tome and Principe,0.863044,6.968272,1786,28,0,1758,0,0,ST
28/2/2021,SAU,AS,Saudi Arabia,23.886291,45.081139,377061,6488,0,370573,0,0,SA
28/2/2021,SEN,AF,Senegal,14.499454,-14.445562,34255,866,0,33389,0,0,SN
28/2/2021,SRB,EU,Serbia,44.206802,20.911009,456450,4429,0,452021,0,0,RS
28/2/2021,SYC,AF,Seychelles,-7.018792,51.242138,2592,11,0,2581,0,0,SC
28/2/2021,SLE,AF,Sierra Leone,8.464806,-11.795935,3887,79,0,3808,0,0,SL
28/2/2021,SGP,AS,Singapore,1.364917,103.822872,59925,29,0,59896,0,0,SG
28/2/2021,SVK,EU,Slovakia,48.665639,19.709097,308083,7189,0,300894,3703,318,SK
28/2/2021,SVN,EU,Slovenia,46.145528,14.974541,189589,4127,10267,175195,543,91,SI
28/2/2021,SLB,OC,Solomon Islands,-9.220083,161.244735,18,0,0,18,0,0,SB
28/2/2021,SOM,AF,Somalia,5.152149,46.199616,6991,231,0,6760,0,0,SO
28/2/2021,ZAF,AF,South Africa,-28.48322,24.676997,1512225,49941,0,1462284,0,0,ZA
28/2/2021,SSD,AF,South Sudan,7.856272,30.040413,7349,87,0,7262,0,0,SS
28/2/2021,LKA,AS,Sri Lanka,7.874097,80.767098,83242,471,0,82771,0,0,LK
28/2/2021,SDN,AF,Sudan,15.45847,30.217636,30395,1888,0,28507,0,0,SD
28/2/2021,SUR,SA,Suriname,3.917846,-56.032028,8913,170,0,8743,0,0,SR
28/2/2021,CHE,EU,Switzerland,46.815514,8.224472,551934,10052,77556,464326,809,153,CH
28/2/2021,SYR,AS,Syrian Arab Republic,34.814902,39.056126,15533,1023,0,14510,0,0,SY
28/2/2021,TJK,AS,Tajikistan,38.858194,71.26218,13714,91,0,13623,0,0,TJ
28/2/2021,THA,AS,Thailand,13.036597,101.492515,25951,83,0,25868,0,0,TH
28/2/2021,TGO,AF,Togo,8.621697,0.829685,6851,83,0,6768,0,0,TG
28/2/2021,TTO,NA,Trinidad and Tobago,10.687223,-61.220852,7704,139,0,7565,0,0,TT
28/2/2021,TUN,AF,Tunisia,33.892166,9.561556,232615,7974,0,224641,0,0,TN
28/2/2021,TUR,AS,Turkey,38.961516,35.25175,2693164,28503,0,2664661,0,0,TR
28/2/2021,TCA,NA,Turks and Caicos Islands,21.692252,-71.803756,2099,14,0,2085,0,0,TC
28/2/2021,UGA,AF,Uganda,1.365188,32.304651,40335,334,0,40001,0,0,UG
28/2/2021,UKR,EU,Ukraine,48.379888,31.168139,1347849,25982,0,1321867,0,0,UA
28/2/2021,ARE,AS,United Arab Emirates,24.358745,53.982494,388594,1213,0,387381,0,0,AE
28/2/2021,GBR,EU,United Kingdom,54.633221,-3.432277,4176554,122849,0,4053705,0,0,UK
28/2/2021,USA,NA,United States of America,36.966428,-95.844032,28293943,513523,0,27780420,0,0,US
28/2/2021,VIR,NA,United States Virgin Islands,18.036736,-64.801704,2646,25,0,2621,0,0,VI
28/2/2021,URY,SA,Uruguay,-32.53152,-55.758328,56542,601,0,55941,0,0,UY
28/2/2021,UZB,AS,Uzbekistan,41.379722,64.564459,79886,622,0,79264,0,0,UZ
28/2/2021,VUT,OC,Vanuatu,-16.661195,168.214882,1,0,0,1,0,0,VU
28/2/2021,YEM,AS,Yemen,15.555545,48.531539,2273,632,0,1641,0,0,YE
28/2/2021,ZMB,AF,Zambia,-13.151917,27.852537,77171,1059,0,76112,0,0,ZM
28/2/2021,ZWE,AF,Zimbabwe,-19.013286,29.146667,35994,1458,0,34536,0,0,ZW
31/3/2021,AFG,AS,Afghanistan,33.930445,67.678945,56454,2484,0,53970,0,0,AF
31/3/2021,ALB,EU,Albania,41.156986,20.181222,125157,2235,91271,31651,262,9,AL
31/3/2021,DZA,AF,Algeria,28.026875,1.65284,117061,3089,0,113972,0,0,DZ
31/3/2021,AND,EU,Andorra,42.542268,1.596865,12010,115,0,11895,28,0,AD
31/3/2021,AGO,AF,Angola,-11.209451,17.880669,22182,536,0,21646,0,0,AO
31/3/2021,AIA,NA,Anguilla,18.225119,-63.07213,25,0,0,25,0,0,AI
31/3/2021,ATG,NA,Antigua and Barbuda,17.363183,-61.789423,1136,28,0,1108,0,0,AG
31/3/2021,ARG,SA,Argentina,-38.421295,-63.587403,2322611,55611,0,2267000,0,0,AR
31/3/2021,ARM,AS,Armenia,40.066181,45.111108,192639,3515,0,189124,0,0,AM
31/3/2021,ABW,NA,Aruba,12.517713,-69.965112,9294,82,0,9212,0,0,AW
31/3/2021,AUS,OC,Australia,-26.853388,133.275154,29296,909,0,28387,0,0,AU
31/3/2021,AUT,EU,Austria,47.697542,13.349319,543926,9282,485037,49607,0,0,AT
31/3/2021,AUT,EU,Austria,47.697542,13.349319,545726,9109,484704,51913,1787,531,AT
31/3/2021,AZE,AS,Azerbaijan,40.147396,47.572098,259476,3538,0,255938,0,0,AZ
31/3/2021,BHS,NA,Bahamas,24.885993,-76.709892,9119,188,0,8931,0,0,BS
31/3/2021,BHR,AS,Bahrain,26.039722,50.559306,143574,517,0,143057,0,0,BH
31/3/2021,BGD,AS,Bangladesh,23.68764,90.351002,611295,9046,0,602249,0,0,BD
31/3/2021,BRB,NA,Barbados,13.18355,-59.534649,3634,41,0,3593,0,0,BB
31/3/2021,BLR,EU,Belarus,53.711111,27.973847,321807,2247,0,319560,0,0,BY
31/3/2021,BEL,EU,Belgium,50.499527,4.475402,882453,23016,0,859437,2929,755,BE
31/3/2021,BLZ,NA,Belize,17.192929,-88.5009,12415,317,0,12098,0,0,BZ
31/3/2021,BEN,AF,Benin,9.322048,2.313138,7100,90,0,7010,0,0,BJ
31/3/2021,BMU,NA,Bermuda,32.320236,-64.774022,1136,12,0,1124,0,0,BM
31/3/2021,BTN,AS,Bhutan,27.515709,90.442455,873,1,0,872,0,0,BT
31/3/2021,BIH,EU,Bosnia and Herzegovina,43.892652,17.670584,169626,6599,130492,32535,0,0,BA
31/3/2021,BWA,AF,Botswana,-22.344029,24.680158,39848,568,0,39280,0,0,BW
31/3/2021,BRA,SA,Brazil,-14.242915,-53.189267,12573615,313866,0,12259749,0,0,BR
31/3/2021,VGB,NA,British Virgin Islands,18.573601,-64.492065,154,1,0,153,0,0,VG
31/3/2021,BGR,EU,Bulgaria,42.729862,25.491667,338426,13068,0,325358,0,0,BG
31/3/2021,BFA,AF,Burkina Faso,12.24185,-1.55676,12717,146,0,12571,0,0,BF
31/3/2021,BDI,AF,Burundi,-3.387918,29.920395,2810,6,0,2804,0,0,BI
31/3/2021,CPV,AF,Cabo Verde,16.0026,-24.014095,17279,168,0,17111,0,0,CV
31/3/2021,KHM,AS,Cambodia,12.54775,104.98386,2440,11,0,2429,0,0,KH
31/3/2021,CMR,AF,Cameroon,7.365302,12.343439,47669,721,0,46948,0,0,CM
31/3/2021,CAN,NA,Canada,62.393303,-96.818145,971715,22900,0,948815,0,0,CA
31/3/2021,CYM,NA,Cayman Islands,19.512365,-80.580025,499,2,0,497,0,0,KY
31/3/2021,CAF,AF,Central African Republic,6.614041,20.941759,5161,67,0,5094,0,0,CF
31/3/2021,TCD,AF,Chad,15.445718,18.738068,4523,164,0,4359,0,0,TD
31/3/2021,CHL,SA,Chile,-36.711951,-73.601704,989492,23107,0,966385,0,0,CL
31/3/2021,CHN,AS,China,34.668138,104.165802,102734,4851,0,97883,0,0,CN
31/3/2021,COL,SA,Colombia,4.577317,-74.298973,2389779,63079,0,2326700,0,0,CO
31/3/2021,COM,AF,Comoros,-11.875119,43.877007,3696,146,0,3550,0,0,KM
31/3/2021,CRI,NA,Costa Rica,9.624897,-84.253308,216268,2949,0,213319,0,0,CR
31/3/2021,HRV,EU,Croatia,44.48732,16.460306,271632,5947,0,265685,0,0,HR
31/3/2021,CUB,NA,Cuba,21.527062,-79.544601,74212,421,0,73791,0,0,CU
31/3/2021,CUW,NA,Curaçao,12.209208,-68.945576,7740,33,0,7707,0,0,CW
31/3/2021,CYP,EU,Cyprus,35.167406,33.435499,46173,313,0,45860,1224,0,CY
31/3/2021,CZE,EU,Czech Republic,49.800901,15.478153,1539617,26586,1371074,141957,0,0,CZ
31/3/2021,DNK,EU,Denmark,56.155403,11.617223,230603,2419,218985,9199,218,0,DK
31/3/2021,DJI,AF,Djibouti,11.808375,42.595222,7790,69,0,7721,0,0,DJ
31/3/2021,DMA,NA,Dominica,15.416749,-61.36413,161,0,0,161,0,0,DM
31/3/2021,DOM,NA,Dominican Republic,18.736509,-70.161744,252384,3317,0,249067,0,0,DO
31/3/2021,ECU,SA,Ecuador,-1.779901,-78.131592,327325,16780,0,310545,0,0,EC
31/3/2021,EGY,AF,Egypt,26.696362,30.246486,201432,11956,0,189476,0,0,EG
31/3/2021,SLV,NA,El Salvador,13.796873,-88.910412,64431,2006,0,62425,0,0,SV
31/3/2021,GNQ,AF,Equatorial Guinea,1.633925,10.341295,6914,102,0,6812,0,0,GQ
31/3/2021,ERI,AF,Eritrea,15.18132,39.786709,3279,9,0,3270,0,0,ER
31/3/2021,EST,EU,Estonia,58.596209,25.023778,106424,902,0,105522,0,0,EE
31/3/2021,ETH,AF,Ethiopia,9.148086,40.493059,204521,2841,0,201680,0,0,ET
31/3/2021,FLK,SA,Falkland Islands (Malvinas),-51.800581,-59.528839,51,0,0,51,0,0,FK
31/3/2021,FJI,OC,Fiji,-16.578041,178.416339,67,2,0,65,0,0,FJ
31/3/2021,FIN,EU,Finland,64.952416,26.068944,77452,846,0,76606,0,0,FI
31/3/2021,FRA,EU,France,46.232193,2.209667,4432242,94763,0,4337479,0,0,FR
31/3/2021,GUF,SA,French Guiana,3.951795,-53.07823,16922,89,0,16833,0,0,0
31/3/2021,PYF,OC,French Polynesia,-17.778572,-143.903496,18622,141,0,18481,0,0,PF
31/3/2021,GAB,AF,Gabon,-0.828097,11.598909,19140,114,0,19026,0,0,GA
31/3/2021,GMB,AF,Gambia,13.445411,-15.311436,5420,164,0,5256,0,0,GM
31/3/2021,GEO,AS,Georgia,42.319847,43.368055,281761,3778,0,277983,0,0,GE
31/3/2021,DEU,EU,Germany,51.165706,10.452764,2808873,76342,2521800,210731,0,0,DE
31/3/2021,GHA,AF,Ghana,7.955012,-1.03182,90552,742,0,89810,0,0,GH
31/3/2021,GIB,EU,Gibraltar,36.132235,-5.352273,4265,94,0,4171,0,0,GI
31/3/2021,GRC,EU,Greece,38.275283,23.810343,260077,8017,0,252060,0,0,EL
31/3/2021,GRL,NA,Greenland,71.702379,-42.177174,31,0,0,31,0,0,0
31/3/2021,GRD,NA,Grenada,12.152588,-61.689557,155,1,0,154,0,0,GD
31/3/2021,GLP,NA,Guadeloupe,16.192207,-61.272382,11512,173,0,11339,0,0,0
31/3/2021,GUM,OC,Guam,13.446472,144.786613,7595,134,0,7461,0,0,GU
31/3/2021,GTM,NA,Guatemala,15.776261,-90.229744,193834,6823,0,187011,0,0,GT
31/3/2021,GGY,EU,Guernsey,49.575693,-2.42318,821,17,0,804,0,0,GG
31/3/2021,GIN,AF,Guinea,9.934887,-11.283845,19908,125,0,19783,0,0,GN
31/3/2021,GUY,SA,Guyana,4.866324,-58.932507,10182,229,0,9953,0,0,GY
31/3/2021,HTI,NA,Haiti,19.054426,-73.045971,12758,251,0,12507,0,0,HT
31/3/2021,VAT,EU,Holy See,41.903859,12.452041,26,0,0,26,0,0,0
31/3/2021,HND,NA,Honduras,14.746333,-86.253097,187975,4585,0,183390,0,0,HN
31/3/2021,HUN,EU,Hungary,47.164638,19.508944,652433,20737,406935,224761,12346,1492,HU
31/3/2021,ISL,EU,Iceland,64.963942,-19.021169,6194,29,0,6165,0,0,IS
31/3/2021,IND,AS,India,21.125681,82.794998,12149335,162468,0,11986867,0,0,IN
31/3/2021,IDN,AS,Indonesia,-2.518722,118.015568,1511712,40858,0,1470854,0,0,ID
31/3/2021,IRQ,AS,Iraq,33.223737,43.685901,844260,14286,0,829974,0,0,IQ
31/3/2021,IRL,EU,Ireland,53.41975,-8.240472,235854,4687,0,231167,13566,1431,IE
31/3/2021,IMN,EU,Isle of Man,54.23782,-4.555111,1566,29,0,1537,0,0,IM
31/3/2021,ISR,AS,Israel,31.418388,35.073541,833118,6203,0,826915,0,0,IL
31/3/2021,ITA,EU,Italy,41.873987,12.564167,3584899,109346,2913045,562508,32890,3710,IT
31/3/2021,JAM,NA,Jamaica,18.115265,-77.27348,38848,587,0,38261,0,0,JM
31/3/2021,JPN,AS,Japan,34.886306,134.379711,472112,9113,0,462999,0,0,JP
31/3/2021,JEY,EU,Jersey,49.217445,-2.141056,3227,69,0,3158,0,0,JE
31/3/2021,JOR,AS,Jordan,31.276778,37.130583,605007,6747,0,598260,0,0,JO
31/3/2021,KAZ,AS,Kazakhstan,48.193764,66.902264,297472,5912,0,291560,0,0,KZ
31/3/2021,KEN,AF,Kenya,0.170945,37.903969,132646,2147,0,130499,0,0,KE
31/3/2021,KWT,AS,Kuwait,29.310278,47.493515,230821,1308,0,229513,0,0,KW
31/3/2021,KGZ,AS,Kyrgyzstan,41.205528,74.779888,88374,1499,0,86875,0,0,KG
31/3/2021,LVA,EU,Latvia,56.875584,24.607722,102363,1899,0,100464,0,0,LV
31/3/2021,LBN,AS,Lebanon,33.872639,35.876736,465007,6184,0,458823,0,0,LB
31/3/2021,LSO,AF,Lesotho,-29.620511,28.247414,10686,315,0,10371,0,0,LS
31/3/2021,LBR,AF,Liberia,6.452424,-9.428598,2053,85,0,1968,0,0,LR
31/3/2021,LBY,AF,Libya,26.338522,17.268816,158251,2658,0,155593,0,0,LY
31/3/2021,LIE,EU,Liechtenstein,47.164696,9.555,2753,56,0,2697,0,0,LI
31/3/2021,LTU,EU,Lithuania,55.174112,23.906736,217005,3583,199767,13655,0,0,LT
31/3/2021,LUX,EU,Luxembourg,49.815764,6.131514,61882,749,0,61133,0,0,LU
31/3/2021,MDG,AF,Madagascar,-18.777192,46.854328,24264,394,0,23870,0,0,MG
31/3/2021,MWI,AF,Malawi,-13.24627,34.295385,33525,1116,0,32409,0,0,MW
31/3/2021,MYS,AS,Malaysia,4.109319,109.455475,344018,1265,0,342753,0,0,MY
31/3/2021,MDV,AS,Maldives,3.202833,73.165249,24079,67,0,24012,0,0,MV
31/3/2021,MLI,AF,Mali,17.579757,-3.998823,9998,384,0,9614,0,0,ML
31/3/2021,MLT,EU,Malta,35.946151,14.384612,29033,392,27812,829,0,0,MT
31/3/2021,MHL,OC,Marshall Islands,10.10382,168.728363,4,0,0,4,0,0,0
31/3/2021,MTQ,NA,Martinique,14.635541,-61.022814,7549,50,0,7499,0,0,0
31/3/2021,MRT,AF,Mauritania,21.00681,-10.947098,17824,449,0,17375,0,0,MR
31/3/2021,MUS,AF,Mauritius,-15.422486,60.006449,963,10,0,953,0,0,MU
31/3/2021,MYT,AF,Mayotte,-12.824511,45.165455,19408,161,0,19247,0,0,0
31/3/2021,MEX,NA,Mexico,23.624813,-102.57867,2227842,201826,0,2026016,0,0,MX
31/3/2021,MDA,EU,Moldova,46.979527,28.377195,230241,4960,207852,17429,0,0,MD
31/3/2021,MCO,EU,Monaco,43.738348,7.424451,2281,28,0,2253,0,0,MC
31/3/2021,MNG,AS,Mongolia,46.860945,103.836986,8070,6,0,8064,0,0,MN
31/3/2021,MNE,EU,Montenegro,42.710152,19.410069,91218,1274,0,89944,522,0,ME
31/3/2021,MSR,NA,Montserrat,16.749415,-62.192741,20,1,0,19,0,0,MS
31/3/2021,MAR,AF,Morocco,31.792306,-7.080168,495421,8813,0,486608,0,0,MA
31/3/2021,MOZ,AF,Mozambique,-18.670284,35.530157,67466,772,0,66694,0,0,MZ
31/3/2021,NAM,AF,Namibia,-22.965662,18.486165,44051,520,0,43531,0,0,NA
31/3/2021,NPL,AS,Nepal,28.395056,84.127803,277309,3030,0,274279,0,0,NP
31/3/2021,NLD,EU,Netherlands,52.133057,5.29525,1272616,16538,0,1256078,26335,0,NL
31/3/2021,NCL,OC,New Caledonia,-21.123889,165.846901,121,0,0,121,0,0,NC
31/3/2021,NZL,OC,New Zealand,-40.9006,174.886,2140,26,0,2114,0,0,NZ
31/3/2021,NIC,NA,Nicaragua,12.866726,-85.214298,5326,178,0,5148,0,0,NI
31/3/2021,NER,AF,Niger,17.611,8.080946,5003,186,0,4817,0,0,NE
31/3/2021,NGA,AF,Nigeria,9.084575,8.674252,162762,2056,0,160706,0,0,NG
31/3/2021,MKD,EU,North Macedonia,41.611,21.751417,128511,3749,0,124762,0,0,MK
31/3/2021,NOR,EU,Norway,64.583013,17.86411,93605,673,0,92932,3465,663,NO
31/3/2021,OMN,AS,Oman,21.516861,55.859291,158056,1669,0,156387,0,0,OM
31/3/2021,PAK,AS,Pakistan,30.441861,69.359766,663200,14356,0,648844,0,0,PK
31/3/2021,PAN,NA,Panama,8.41771,-80.112777,354085,6103,0,347982,0,0,PA
31/3/2021,PNG,OC,Papua New Guinea,-6.48825,148.403152,5991,60,0,5931,0,0,PG
31/3/2021,PRY,SA,Paraguay,-23.451389,-58.453215,210425,4113,0,206312,0,0,PY
31/3/2021,PER,SA,Peru,-9.181352,-75.002365,1533121,142170,0,1390951,0,0,PE
31/3/2021,PHL,AS,Philippines,12.881958,121.76654,741160,13191,0,727969,0,0,PH
31/3/2021,POL,EU,Poland,51.92275,19.136875,2321717,53045,1861925,406747,0,0,PL
31/3/2021,PRT,EU,Portugal,39.553444,-7.839319,821105,16845,0,804260,0,0,PT
31/3/2021,PRI,NA,Puerto Rico,18.223285,-66.592731,106935,2112,0,104823,0,0,PR
31/3/2021,QAT,AS,Qatar,25.318833,51.19693,179184,289,0,178895,0,0,QA
31/3/2021,REU,AF,Réunion,-21.114533,55.532062,16586,115,0,16471,0,0,0
31/3/2021,ROU,EU,Romania,45.947125,24.980514,952803,23538,0,929265,0,0,RO
31/3/2021,RUS,EU,Russian Fed.,61.523111,-74.9,4545095,98850,0,4446245,0,0,RU
31/3/2021,RWA,AF,Rwanda,-1.94708,29.876376,21645,306,0,21339,0,0,RW
31/3/2021,KNA,NA,Saint Kitts and Nevis,17.257731,-62.706413,44,0,0,44,0,0,KN
31/3/2021,LCA,NA,Saint Lucia,13.904011,-60.974176,4228,59,0,4169,0,0,LC
31/3/2021,SPM,NA,Saint Pierre and Miquelon,46.966164,-56.336825,24,0,0,24,0,0,0
31/3/2021,VCT,NA,Saint Vincent and the Grenadines,12.980909,-61.287392,1739,10,0,1729,0,0,VC
31/3/2021,WSM,OC,Samoa,-13.736573,-172.10717,1,0,0,1,0,0,0
31/3/2021,SMR,EU,San Marino,43.942973,12.460035,4732,84,0,4648,0,0,SM
31/3/2021,STP,AF,Sao Tome and Principe,0.863044,6.968272,2221,34,0,2187,0,0,ST
31/3/2021,SAU,AS,Saudi Arabia,23.886291,45.081139,389422,6663,0,382759,0,0,SA
31/3/2021,SEN,AF,Senegal,14.499454,-14.445562,38618,1049,0,37569,0,0,SN
31/3/2021,SRB,EU,Serbia,44.206802,20.911009,595489,5270,0,590219,0,0,RS
31/3/2021,SYC,AF,Seychelles,-7.018792,51.242138,4114,20,0,4094,0,0,SC
31/3/2021,SLE,AF,Sierra Leone,8.464806,-11.795935,3970,79,0,3891,0,0,SL
31/3/2021,SGP,AS,Singapore,1.364917,103.822872,60347,30,0,60317,0,0,SG
31/3/2021,SVK,EU,Slovakia,48.665639,19.709097,361185,9719,0,351466,2994,278,SK
31/3/2021,SVN,EU,Slovenia,46.145528,14.974541,216937,4340,11554,201043,518,108,SI
31/3/2021,SLB,OC,Solomon Islands,-9.220083,161.244735,19,0,0,19,0,0,SB
31/3/2021,SOM,AF,Somalia,5.152149,46.199616,11164,510,0,10654,0,0,SO
31/3/2021,ZAF,AF,South Africa,-28.48322,24.676997,1546735,52788,0,1493947,0,0,ZA
31/3/2021,SSD,AF,South Sudan,7.856272,30.040413,10119,108,0,10011,0,0,SS
31/3/2021,ESP,EU,Spain,39.896027,-2.487694,3284353,75459,0,3208894,330834,29862,ES
31/3/2021,LKA,AS,Sri Lanka,7.874097,80.767098,92706,568,0,92138,0,0,LK
31/3/2021,SDN,AF,Sudan,15.45847,30.217636,31919,2079,0,29840,0,0,SD
31/3/2021,SUR,SA,Suriname,3.917846,-56.032028,9104,177,0,8927,0,0,SR
31/3/2021,SWE,EU,Sweden,62.199806,17.637493,813191,13498,0,799693,0,5964,SE
31/3/2021,CHE,EU,Switzerland,46.815514,8.224472,596386,10406,82375,503605,997,161,CH
31/3/2021,SYR,AS,Syrian Arab Republic,34.814902,39.056126,18775,1254,0,17521,0,0,SY
31/3/2021,TJK,AS,Tajikistan,38.858194,71.26218,13714,91,0,13623,0,0,TJ
31/3/2021,THA,AS,Thailand,13.036597,101.492515,28863,94,0,28769,0,0,TH
31/3/2021,TGO,AF,Togo,8.621697,0.829685,10249,109,0,10140,0,0,TG
31/3/2021,TTO,NA,Trinidad and Tobago,10.687223,-61.220852,7986,142,0,7844,0,0,TT
31/3/2021,TUN,AF,Tunisia,33.892166,9.561556,252171,8788,0,243383,0,0,TN
31/3/2021,TUR,AS,Turkey,38.961516,35.25175,3277880,31385,0,3246495,0,0,TR
31/3/2021,TCA,NA,Turks and Caicos Islands,21.692252,-71.803756,2327,17,0,2310,0,0,TC
31/3/2021,UGA,AF,Uganda,1.365188,32.304651,40839,335,0,40504,0,0,UG
31/3/2021,UKR,EU,Ukraine,48.379888,31.168139,1674168,32825,0,1641343,0,0,UA
31/3/2021,ARE,AS,United Arab Emirates,24.358745,53.982494,459360,1492,0,457868,0,0,AE
31/3/2021,GBR,EU,United Kingdom,54.633221,-3.432277,4345788,126713,0,4219075,0,0,UK
31/3/2021,USA,NA,United States of America,36.966428,-95.844032,30058797,548179,0,29510618,0,0,US
31/3/2021,VIR,NA,United States Virgin Islands,18.036736,-64.801704,2907,26,0,2881,0,0,VI
31/3/2021,URY,SA,Uruguay,-32.53152,-55.758328,99584,928,0,98656,0,0,UY
31/3/2021,UZB,AS,Uzbekistan,41.379722,64.564459,82869,629,0,82240,0,0,UZ
31/3/2021,VUT,OC,Vanuatu,-16.661195,168.214882,3,0,0,3,0,0,VU
31/3/2021,YEM,AS,Yemen,15.555545,48.531539,4251,883,0,3368,0,0,YE
31/3/2021,ZMB,AF,Zambia,-13.151917,27.852537,88199,1202,0,86997,0,0,ZM
31/3/2021,ZWE,AF,Zimbabwe,-19.013286,29.146667,36858,1521,0,35337,0,0,ZW
30/4/2021,AFG,AS,Afghanistan,33.930445,67.678945,59745,2625,0,57120,0,0,AF
30/4/2021,DZA,AF,Algeria,28.026875,1.65284,121866,3244,0,118622,0,0,DZ
30/4/2021,AND,EU,Andorra,42.542268,1.596865,13232,125,0,13107,18,0,AD
30/4/2021,AGO,AF,Angola,-11.209451,17.880669,26431,594,0,25837,0,0,AO
30/4/2021,AIA,NA,Anguilla,18.225119,-63.07213,91,0,0,91,0,0,AI
30/4/2021,ATG,NA,Antigua and Barbuda,17.363183,-61.789423,1224,32,0,1192,0,0,AG
30/4/2021,ARG,SA,Argentina,-38.421295,-63.587403,2928890,62947,0,2865943,0,0,AR
30/4/2021,ARM,AS,Armenia,40.066181,45.111108,216064,4108,0,211956,0,0,AM
30/4/2021,ABW,NA,Aruba,12.517713,-69.965112,10585,98,0,10487,0,0,AW
30/4/2021,AUS,OC,Australia,-26.853388,133.275154,29779,910,0,28869,0,0,AU
30/4/2021,AUT,EU,Austria,47.697542,13.349319,615486,10080,569645,35761,0,0,AT
30/4/2021,AUT,EU,Austria,47.697542,13.349319,616614,9978,568952,37684,1154,506,AT
30/4/2021,AZE,AS,Azerbaijan,40.147396,47.572098,317913,4490,0,313423,0,0,AZ
30/4/2021,BHS,NA,Bahamas,24.885993,-76.709892,10389,198,0,10191,0,0,BS
30/4/2021,BHR,AS,Bahrain,26.039722,50.559306,175752,639,0,175113,0,0,BH
30/4/2021,BGD,AS,Bangladesh,23.68764,90.351002,759132,11450,0,747682,0,0,BD
30/4/2021,BRB,NA,Barbados,13.18355,-59.534649,3838,44,0,3794,0,0,BB
30/4/2021,BLR,EU,Belarus,53.711111,27.973847,358738,2542,0,356196,0,0,BY
30/4/2021,BEL,EU,Belgium,50.499527,4.475402,990229,24230,0,965999,2707,854,BE
30/4/2021,BLZ,NA,Belize,17.192929,-88.5009,12639,323,0,12316,0,0,BZ
30/4/2021,BEN,AF,Benin,9.322048,2.313138,7821,99,0,7722,0,0,BJ
30/4/2021,BMU,NA,Bermuda,32.320236,-64.774022,2374,24,0,2350,0,0,BM
30/4/2021,BTN,AS,Bhutan,27.515709,90.442455,1074,1,0,1073,0,0,BT
30/4/2021,BIH,EU,Bosnia and Herzegovina,43.892652,17.670584,198461,8551,159223,30687,0,0,BA
30/4/2021,BWA,AF,Botswana,-22.344029,24.680158,46934,712,0,46222,0,0,BW
30/4/2021,BRA,SA,Brazil,-14.242915,-53.189267,14521289,398185,0,14123104,0,0,BR
30/4/2021,VGB,NA,British Virgin Islands,18.573601,-64.492065,194,1,0,193,0,0,VG
30/4/2021,BGR,EU,Bulgaria,42.729862,25.491667,403728,16368,0,387360,0,0,BG
30/4/2021,BFA,AF,Burkina Faso,12.24185,-1.55676,13304,157,0,13147,0,0,BF
30/4/2021,BDI,AF,Burundi,-3.387918,29.920395,3995,6,0,3989,0,0,BI
30/4/2021,CPV,AF,Cabo Verde,16.0026,-24.014095,23181,213,0,22968,0,0,CV
30/4/2021,KHM,AS,Cambodia,12.54775,104.98386,13402,93,0,13309,0,0,KH
30/4/2021,CMR,AF,Cameroon,7.365302,12.343439,65998,991,0,65007,0,0,CM
30/4/2021,CAN,NA,Canada,62.393303,-96.818145,1202737,24117,0,1178620,0,0,CA
30/4/2021,CYM,NA,Cayman Islands,19.512365,-80.580025,542,2,0,540,0,0,KY
30/4/2021,CAF,AF,Central African Republic,6.614041,20.941759,6411,88,0,6323,0,0,CF
30/4/2021,TCD,AF,Chad,15.445718,18.738068,4810,170,0,4640,0,0,TD
30/4/2021,CHL,SA,Chile,-36.711951,-73.601704,1190991,26247,0,1164744,0,0,CL
30/4/2021,CHN,AS,China,34.668138,104.165802,103595,4857,0,98738,0,0,CN
30/4/2021,COL,SA,Colombia,4.577317,-74.298973,2824626,72725,0,2751901,0,0,CO
30/4/2021,COM,AF,Comoros,-11.875119,43.877007,3904,146,0,3758,0,0,KM
30/4/2021,CRI,NA,Costa Rica,9.624897,-84.253308,245601,3202,0,242399,0,0,CR
30/4/2021,HRV,EU,Croatia,44.48732,16.460306,332183,7081,0,325102,0,0,HR
30/4/2021,CUB,NA,Cuba,21.527062,-79.544601,105661,632,0,105029,0,0,CU
30/4/2021,CUW,NA,Curaçao,12.209208,-68.945576,12163,108,0,12055,0,0,CW
30/4/2021,CYP,EU,Cyprus,35.167406,33.435499,66372,380,0,65992,1544,0,CY
30/4/2021,CZE,EU,Czech Republic,49.800901,15.478153,1632932,29316,1555152,48464,0,0,CZ
30/4/2021,DJI,AF,Djibouti,11.808375,42.595222,11026,143,0,10883,0,0,DJ
30/4/2021,DMA,NA,Dominica,15.416749,-61.36413,174,0,0,174,0,0,DM
30/4/2021,DOM,NA,Dominican Republic,18.736509,-70.161744,266214,3471,0,262743,0,0,DO
30/4/2021,ECU,SA,Ecuador,-1.779901,-78.131592,380689,18552,0,362137,0,0,EC
30/4/2021,EGY,AF,Egypt,26.696362,30.246486,226531,13278,0,213253,0,0,EG
30/4/2021,SLV,NA,El Salvador,13.796873,-88.910412,69198,2120,0,67078,0,0,SV
30/4/2021,GNQ,AF,Equatorial Guinea,1.633925,10.341295,7694,112,0,7582,0,0,GQ
30/4/2021,ERI,AF,Eritrea,15.18132,39.786709,3671,10,0,3661,0,0,ER
30/4/2021,EST,EU,Estonia,58.596209,25.023778,122019,1158,0,120861,0,0,EE
30/4/2021,ETH,AF,Ethiopia,9.148086,40.493059,256418,3658,0,252760,0,0,ET
30/4/2021,FLK,SA,Falkland Islands (Malvinas),-51.800581,-59.528839,60,0,0,60,0,0,FK
30/4/2021,FJI,OC,Fiji,-16.578041,178.416339,116,2,0,114,0,0,FJ
30/4/2021,FIN,EU,Finland,64.952416,26.068944,86808,0,0,86808,0,0,FI
30/4/2021,FRA,EU,France,46.232193,2.209667,5202620,103540,0,5099080,0,0,FR
30/4/2021,GUF,SA,French Guiana,3.951795,-53.07823,19264,100,0,19164,0,0,0
30/4/2021,PYF,OC,French Polynesia,-17.778572,-143.903496,18755,141,0,18614,0,0,PF
30/4/2021,GAB,AF,Gabon,-0.828097,11.598909,22568,138,0,22430,0,0,GA
30/4/2021,GMB,AF,Gambia,13.445411,-15.311436,5887,174,0,5713,0,0,GM
30/4/2021,GEO,AS,Georgia,42.319847,43.368055,310310,4110,0,306200,0,0,GE
30/4/2021,DEU,EU,Germany,51.165706,10.452764,3381597,82850,2995200,303547,0,0,DE
30/4/2021,GHA,AF,Ghana,7.955012,-1.03182,92562,779,0,91783,0,0,GH
30/4/2021,GIB,EU,Gibraltar,36.132235,-5.352273,4283,94,0,4189,0,0,GI
30/4/2021,GRC,EU,Greece,38.275283,23.810343,342908,10315,0,332593,0,0,EL
30/4/2021,GRL,NA,Greenland,71.702379,-42.177174,31,0,0,31,0,0,0
30/4/2021,GRD,NA,Grenada,12.152588,-61.689557,161,1,0,160,0,0,GD
30/4/2021,GLP,NA,Guadeloupe,16.192207,-61.272382,13770,211,0,13559,0,0,0
30/4/2021,GUM,OC,Guam,13.446472,144.786613,7741,136,0,7605,0,0,GU
30/4/2021,GTM,NA,Guatemala,15.776261,-90.229744,226247,7500,0,218747,0,0,GT
30/4/2021,GGY,EU,Guernsey,49.575693,-2.42318,822,17,0,805,0,0,GG
30/4/2021,GIN,AF,Guinea,9.934887,-11.283845,22215,144,0,22071,0,0,GN
30/4/2021,GUY,SA,Guyana,4.866324,-58.932507,12963,293,0,12670,0,0,GY
30/4/2021,HTI,NA,Haiti,19.054426,-73.045971,13056,254,0,12802,0,0,HT
30/4/2021,VAT,EU,Holy See,41.903859,12.452041,26,0,0,26,0,0,0
30/4/2021,HND,NA,Honduras,14.746333,-86.253097,209490,5223,0,204267,0,0,HN
30/4/2021,HUN,EU,Hungary,47.164638,19.508944,779348,27540,510379,241429,5373,642,HU
30/4/2021,ISL,EU,Iceland,64.963942,-19.021169,6466,29,0,6437,0,0,IS
30/4/2021,IND,AS,India,21.125681,82.794998,18762976,208330,0,18554646,0,0,IN
30/4/2021,IDN,AS,Indonesia,-2.518722,118.015568,1668368,45521,0,1622847,0,0,ID
30/4/2021,IRQ,AS,Iraq,33.223737,43.685901,1058794,15433,0,1043361,0,0,IQ
30/4/2021,IRL,EU,Ireland,53.41975,-8.240472,248870,4903,0,243967,14232,1508,IE
30/4/2021,IMN,EU,Isle of Man,54.23782,-4.555111,1587,29,0,1558,0,0,IM
30/4/2021,ISR,AS,Israel,31.418388,35.073541,838477,6385,0,832092,0,0,IL
30/4/2021,ITA,EU,Italy,41.873987,12.564167,4022653,120807,3465576,436270,21523,2583,IT
30/4/2021,JAM,NA,Jamaica,18.115265,-77.27348,45414,770,0,44644,0,0,JM
30/4/2021,JPN,AS,Japan,34.886306,134.379711,586782,10194,0,576588,0,0,JP
30/4/2021,JEY,EU,Jersey,49.217445,-2.141056,3233,69,0,3164,0,0,JE
30/4/2021,JOR,AS,Jordan,31.276778,37.130583,709817,8801,0,701016,0,0,JO
30/4/2021,KAZ,AS,Kazakhstan,48.193764,66.902264,375637,6561,0,369076,0,0,KZ
30/4/2021,KEN,AF,Kenya,0.170945,37.903969,158821,2707,0,156114,0,0,KE
30/4/2021,KWT,AS,Kuwait,29.310278,47.493515,272562,1554,0,271008,0,0,KW
30/4/2021,KGZ,AS,Kyrgyzstan,41.205528,74.779888,95275,1604,0,93671,0,0,KG
30/4/2021,LVA,EU,Latvia,56.875584,24.607722,118558,2131,0,116427,0,0,LV
30/4/2021,LBN,AS,Lebanon,33.872639,35.876736,525577,7249,0,518328,0,0,LB
30/4/2021,LSO,AF,Lesotho,-29.620511,28.247414,10731,316,0,10415,0,0,LS
30/4/2021,LBR,AF,Liberia,6.452424,-9.428598,2099,85,0,2014,0,0,LR
30/4/2021,LBY,AF,Libya,26.338522,17.268816,177072,3023,0,174049,0,0,LY
30/4/2021,LIE,EU,Liechtenstein,47.164696,9.555,3021,56,0,2965,0,0,LI
30/4/2021,LTU,EU,Lithuania,55.174112,23.906736,248655,3937,224649,20069,0,0,LT
30/4/2021,MDG,AF,Madagascar,-18.777192,46.854328,36696,637,0,36059,0,0,MG
30/4/2021,MWI,AF,Malawi,-13.24627,34.295385,34062,1148,0,32914,0,0,MW
30/4/2021,MYS,AS,Malaysia,4.109319,109.455475,404925,1492,0,403433,0,0,MY
30/4/2021,MDV,AS,Maldives,3.202833,73.165249,29835,73,0,29762,0,0,MV
30/4/2021,MLI,AF,Mali,17.579757,-3.998823,13815,481,0,13334,0,0,ML
30/4/2021,MLT,EU,Malta,35.946151,14.384612,30292,413,29548,331,0,0,MT
30/4/2021,MHL,OC,Marshall Islands,10.10382,168.728363,4,0,0,4,0,0,0
30/4/2021,MTQ,NA,Martinique,14.635541,-61.022814,10491,70,0,10421,0,0,0
30/4/2021,MRT,AF,Mauritania,21.00681,-10.947098,18377,455,0,17922,0,0,MR
30/4/2021,MUS,AF,Mauritius,-15.422486,60.006449,1206,16,0,1190,0,0,MU
30/4/2021,MYT,AF,Mayotte,-12.824511,45.165455,20055,170,0,19885,0,0,0
30/4/2021,MEX,NA,Mexico,23.624813,-102.57867,2336944,215918,0,2121026,0,0,MX
30/4/2021,MDA,EU,Moldova,46.979527,28.377195,250837,5812,239914,5111,0,0,MD
30/4/2021,MCO,EU,Monaco,43.738348,7.424451,2452,32,0,2420,0,0,MC
30/4/2021,MNG,AS,Mongolia,46.860945,103.836986,34623,102,0,34521,0,0,MN
30/4/2021,MNE,EU,Montenegro,42.710152,19.410069,97389,1495,0,95894,297,0,ME
30/4/2021,MSR,NA,Montserrat,16.749415,-62.192741,20,1,0,19,0,0,MS
30/4/2021,MAR,AF,Morocco,31.792306,-7.080168,510886,9020,0,501866,0,0,MA
30/4/2021,MOZ,AF,Mozambique,-18.670284,35.530157,69864,814,0,69050,0,0,MZ
30/4/2021,NAM,AF,Namibia,-22.965662,18.486165,48177,638,0,47539,0,0,NA
30/4/2021,NPL,AS,Nepal,28.395056,84.127803,323187,3279,0,319908,0,0,NP
30/4/2021,NLD,EU,Netherlands,52.133057,5.29525,1496352,17148,0,1479204,28658,0,NL
30/4/2021,NCL,OC,New Caledonia,-21.123889,165.846901,124,0,0,124,0,0,NC
30/4/2021,NZL,OC,New Zealand,-40.9006,174.886,2257,26,0,2231,0,0,NZ
30/4/2021,NIC,NA,Nicaragua,12.866726,-85.214298,5498,182,0,5316,0,0,NI
30/4/2021,NER,AF,Niger,17.611,8.080946,5224,191,0,5033,0,0,NE
30/4/2021,NGA,AF,Nigeria,9.084575,8.674252,165055,2063,0,162992,0,0,NG
30/4/2021,MKD,EU,North Macedonia,41.611,21.751417,151750,4772,0,146978,0,0,MK
30/4/2021,NOR,EU,Norway,64.583013,17.86411,110509,756,0,109753,4207,804,NO
30/4/2021,OMN,AS,Oman,21.516861,55.859291,193253,2010,0,191243,0,0,OM
30/4/2021,PAK,AS,Pakistan,30.441861,69.359766,815711,17680,0,798031,0,0,PK
30/4/2021,PAN,NA,Panama,8.41771,-80.112777,363895,6222,0,357673,0,0,PA
30/4/2021,PNG,OC,Papua New Guinea,-6.48825,148.403152,11119,115,0,11004,0,0,PG
30/4/2021,PRY,SA,Paraguay,-23.451389,-58.453215,274170,6196,0,267974,0,0,PY
30/4/2021,PER,SA,Peru,-9.181352,-75.002365,1783339,165628,0,1617711,0,0,PE
30/4/2021,PHL,AS,Philippines,12.881958,121.76654,1028712,17145,0,1011567,0,0,PH
30/4/2021,POL,EU,Poland,51.92275,19.136875,2792142,67502,2496810,227830,0,0,PL
30/4/2021,PRT,EU,Portugal,39.553444,-7.839319,836033,16974,0,819059,0,0,PT
30/4/2021,PRI,NA,Puerto Rico,18.223285,-66.592731,130671,2296,0,128375,0,0,PR
30/4/2021,QAT,AS,Qatar,25.318833,51.19693,204976,450,0,204526,0,0,QA
30/4/2021,REU,AF,Réunion,-21.114533,55.532062,20381,148,0,20233,0,0,0
30/4/2021,ROU,EU,Romania,45.947125,24.980514,1054341,28109,0,1026232,0,0,RO
30/4/2021,RUS,EU,Russian Fed.,61.523111,-74.9,4805288,110128,0,4695160,0,0,RU
30/4/2021,RWA,AF,Rwanda,-1.94708,29.876376,24995,333,0,24662,0,0,RW
30/4/2021,KNA,NA,Saint Kitts and Nevis,17.257731,-62.706413,44,0,0,44,0,0,KN
30/4/2021,LCA,NA,Saint Lucia,13.904011,-60.974176,4518,74,0,4444,0,0,LC
30/4/2021,SPM,NA,Saint Pierre and Miquelon,46.966164,-56.336825,25,0,0,25,0,0,0
30/4/2021,VCT,NA,Saint Vincent and the Grenadines,12.980909,-61.287392,1855,11,0,1844,0,0,VC
30/4/2021,WSM,OC,Samoa,-13.736573,-172.10717,1,0,0,1,0,0,0
30/4/2021,SMR,EU,San Marino,43.942973,12.460035,5060,90,0,4970,0,0,SM
30/4/2021,STP,AF,Sao Tome and Principe,0.863044,6.968272,2301,35,0,2266,0,0,ST
30/4/2021,SAU,AS,Saudi Arabia,23.886291,45.081139,416307,6946,0,409361,0,0,SA
30/4/2021,SEN,AF,Senegal,14.499454,-14.445562,40295,1107,0,39188,0,0,SN
30/4/2021,SRB,EU,Serbia,44.206802,20.911009,687944,6337,0,681607,0,0,RS
30/4/2021,SYC,AF,Seychelles,-7.018792,51.242138,5838,27,0,5811,0,0,SC
30/4/2021,SLE,AF,Sierra Leone,8.464806,-11.795935,4053,79,0,3974,0,0,SL
30/4/2021,SGP,AS,Singapore,1.364917,103.822872,61121,30,0,61091,0,0,SG
30/4/2021,SVK,EU,Slovakia,48.665639,19.709097,382211,11684,0,370527,1281,133,SK
30/4/2021,SVN,EU,Slovenia,46.145528,14.974541,241305,4561,13035,223709,616,154,SI
30/4/2021,SLB,OC,Solomon Islands,-9.220083,161.244735,20,0,0,20,0,0,SB
30/4/2021,SOM,AF,Somalia,5.152149,46.199616,13915,713,0,13202,0,0,SO
30/4/2021,ZAF,AF,South Africa,-28.48322,24.676997,1579536,54331,0,1525205,0,0,ZA
30/4/2021,SSD,AF,South Sudan,7.856272,30.040413,10567,114,0,10453,0,0,SS
30/4/2021,ESP,EU,Spain,39.896027,-2.487694,3524077,78216,0,3445861,9668,2308,ES
30/4/2021,LKA,AS,Sri Lanka,7.874097,80.767098,108146,667,0,107479,0,0,LK
30/4/2021,SDN,AF,Sudan,15.45847,30.217636,33944,2349,0,31595,0,0,SD
30/4/2021,SUR,SA,Suriname,3.917846,-56.032028,10218,201,0,10017,0,0,SR
30/4/2021,CHE,EU,Switzerland,46.815514,8.224472,654582,10694,89759,554129,973,220,CH
30/4/2021,SYR,AS,Syrian Arab Republic,34.814902,39.056126,22631,1583,0,21048,0,0,SY
30/4/2021,TJK,AS,Tajikistan,38.858194,71.26218,13714,91,0,13623,0,0,TJ
30/4/2021,THA,AS,Thailand,13.036597,101.492515,65153,203,0,64950,0,0,TH
30/4/2021,TGO,AF,Togo,8.621697,0.829685,12931,123,0,12808,0,0,TG
30/4/2021,TTO,NA,Trinidad and Tobago,10.687223,-61.220852,10170,163,0,10007,0,0,TT
30/4/2021,TUN,AF,Tunisia,33.892166,9.561556,307215,10641,0,296574,0,0,TN
30/4/2021,TUR,AS,Turkey,38.961516,35.25175,4788700,39737,0,4748963,0,0,TR
30/4/2021,TCA,NA,Turks and Caicos Islands,21.692252,-71.803756,2386,17,0,2369,0,0,TC
30/4/2021,UGA,AF,Uganda,1.365188,32.304651,41797,342,0,41455,0,0,UG
30/4/2021,UKR,EU,Ukraine,48.379888,31.168139,2069537,44085,0,2025452,0,0,UA
30/4/2021,ARE,AS,United Arab Emirates,24.358745,53.982494,518262,1584,0,516678,0,0,AE
30/4/2021,USA,NA,United States of America,36.966428,-95.844032,31925830,569167,0,31356663,0,0,US
30/4/2021,VIR,NA,United States Virgin Islands,18.036736,-64.801704,3110,27,0,3083,0,0,VI
30/4/2021,URY,SA,Uruguay,-32.53152,-55.758328,193027,2497,0,190530,0,0,UY
30/4/2021,UZB,AS,Uzbekistan,41.379722,64.564459,90808,649,0,90159,0,0,UZ
30/4/2021,VUT,OC,Vanuatu,-16.661195,168.214882,3,0,0,3,0,0,VU
30/4/2021,YEM,AS,Yemen,15.555545,48.531539,6298,1223,0,5075,0,0,YE
30/4/2021,ZMB,AF,Zambia,-13.151917,27.852537,91533,1250,0,90283,0,0,ZM
30/4/2021,ZWE,AF,Zimbabwe,-19.013286,29.146667,38235,1567,0,36668,0,0,ZW
31/5/2021,AFG,AS,Afghanistan,33.930445,67.678945,71838,2944,0,68894,0,0,AF
31/5/2021,ALB,EU,Albania,41.156986,20.181222,132315,2451,129431,433,33,6,AL
31/5/2021,DZA,AF,Algeria,28.026875,1.65284,128725,3465,0,125260,0,0,DZ
31/5/2021,AND,EU,Andorra,42.542268,1.596865,13727,127,0,13600,4,0,AD
31/5/2021,AGO,AF,Angola,-11.209451,17.880669,34366,764,0,33602,0,0,AO
31/5/2021,AIA,NA,Anguilla,18.225119,-63.07213,109,0,0,109,0,0,AI
31/5/2021,ATG,NA,Antigua and Barbuda,17.363183,-61.789423,1260,42,0,1218,0,0,AG
31/5/2021,ARG,SA,Argentina,-38.421295,-63.587403,3732263,77108,0,3655155,0,0,AR
31/5/2021,ARM,AS,Armenia,40.066181,45.111108,222670,4438,0,218232,0,0,AM
31/5/2021,ABW,NA,Aruba,12.517713,-69.965112,10957,107,0,10850,0,0,AW
31/5/2021,AUS,OC,Australia,-26.853388,133.275154,30098,910,0,29188,0,0,AU
31/5/2021,AUT,EU,Austria,47.697542,13.349319,640553,10424,618690,11439,0,0,AT
31/5/2021,AUT,EU,Austria,47.697542,13.349319,641044,10355,618185,12504,258,152,AT
31/5/2021,AZE,AS,Azerbaijan,40.147396,47.572098,333864,4907,0,328957,0,0,AZ
31/5/2021,BHS,NA,Bahamas,24.885993,-76.709892,11796,230,0,11566,0,0,BS
31/5/2021,BHR,AS,Bahrain,26.039722,50.559306,238157,953,0,237204,0,0,BH
31/5/2021,BGD,AS,Bangladesh,23.68764,90.351002,800540,12619,0,787921,0,0,BD
31/5/2021,BRB,NA,Barbados,13.18355,-59.534649,4012,47,0,3965,0,0,BB
31/5/2021,BLR,EU,Belarus,53.711111,27.973847,394439,2851,0,391588,0,0,BY
31/5/2021,BEL,EU,Belgium,50.499527,4.475402,1062001,24955,0,1037046,1232,438,BE
31/5/2021,BLZ,NA,Belize,17.192929,-88.5009,12791,324,0,12467,0,0,BZ
31/5/2021,BEN,AF,Benin,9.322048,2.313138,8058,101,0,7957,0,0,BJ
31/5/2021,BMU,NA,Bermuda,32.320236,-64.774022,2491,32,0,2459,0,0,BM
31/5/2021,BTN,AS,Bhutan,27.515709,90.442455,1620,1,0,1619,0,0,BT
31/5/2021,BIH,EU,Bosnia and Herzegovina,43.892652,17.670584,204012,9253,175081,19678,0,0,BA
31/5/2021,BWA,AF,Botswana,-22.344029,24.680158,56313,831,0,55482,0,0,BW
31/5/2021,BRA,SA,Brazil,-14.242915,-53.189267,16471600,461057,0,16010543,0,0,BR
31/5/2021,VGB,NA,British Virgin Islands,18.573601,-64.492065,289,1,0,288,0,0,VG
31/5/2021,BGR,EU,Bulgaria,42.729862,25.491667,418274,17662,0,400612,0,0,BG
31/5/2021,BFA,AF,Burkina Faso,12.24185,-1.55676,13430,166,0,13264,0,0,BF
31/5/2021,BDI,AF,Burundi,-3.387918,29.920395,4790,6,0,4784,0,0,BI
31/5/2021,CPV,AF,Cabo Verde,16.0026,-24.014095,30359,264,0,30095,0,0,CV
31/5/2021,KHM,AS,Cambodia,12.54775,104.98386,30094,214,0,29880,0,0,KH
31/5/2021,CMR,AF,Cameroon,7.365302,12.343439,77982,1270,0,76712,0,0,CM
31/5/2021,CAN,NA,Canada,62.393303,-96.818145,1376734,25478,0,1351256,0,0,CA
31/5/2021,CYM,NA,Cayman Islands,19.512365,-80.580025,581,2,0,579,0,0,KY
31/5/2021,CAF,AF,Central African Republic,6.614041,20.941759,7085,98,0,6987,0,0,CF
31/5/2021,TCD,AF,Chad,15.445718,18.738068,4929,173,0,4756,0,0,TD
31/5/2021,CHL,SA,Chile,-36.711951,-73.601704,1377507,29168,0,1348339,0,0,CL
31/5/2021,CHN,AS,China,34.668138,104.165802,111146,4955,0,106191,0,0,CN
31/5/2021,COL,SA,Colombia,4.577317,-74.298973,3363061,87747,0,3275314,0,0,CO
31/5/2021,COM,AF,Comoros,-11.875119,43.877007,3951,146,0,3805,0,0,KM
31/5/2021,CRI,NA,Costa Rica,9.624897,-84.253308,316440,3993,0,312447,0,0,CR
31/5/2021,HRV,EU,Croatia,44.48732,16.460306,356141,8014,0,348127,0,0,HR
31/5/2021,CUB,NA,Cuba,21.527062,-79.544601,141166,950,0,140216,0,0,CU
31/5/2021,CUW,NA,Curaçao,12.209208,-68.945576,12271,122,0,12149,0,0,CW
31/5/2021,CYP,EU,Cyprus,35.167406,33.435499,72515,430,68782,3303,1666,0,CY
31/5/2021,CZE,EU,Czech Republic,49.800901,15.478153,1661780,30119,1621262,10399,0,0,CZ
31/5/2021,DNK,EU,Denmark,56.155403,11.617223,281227,2516,265478,13233,153,0,DK
31/5/2021,DJI,AF,Djibouti,11.808375,42.595222,11528,154,0,11374,0,0,DJ
31/5/2021,DMA,NA,Dominica,15.416749,-61.36413,188,0,0,188,0,0,DM
31/5/2021,DOM,NA,Dominican Republic,18.736509,-70.161744,291910,3628,0,288282,0,0,DO
31/5/2021,ECU,SA,Ecuador,-1.779901,-78.131592,425841,20545,0,405296,0,0,EC
31/5/2021,EGY,AF,Egypt,26.696362,30.246486,261666,15047,0,246619,0,0,EG
31/5/2021,SLV,NA,El Salvador,13.796873,-88.910412,73246,2245,0,71001,0,0,SV
31/5/2021,GNQ,AF,Equatorial Guinea,1.633925,10.341295,8529,118,0,8411,0,0,GQ
31/5/2021,ERI,AF,Eritrea,15.18132,39.786709,4061,14,0,4047,0,0,ER
31/5/2021,EST,EU,Estonia,58.596209,25.023778,129544,1252,0,128292,0,0,EE
31/5/2021,ETH,AF,Ethiopia,9.148086,40.493059,271345,4155,0,267190,0,0,ET
31/5/2021,FLK,SA,Falkland Islands (Malvinas),-51.800581,-59.528839,60,0,0,60,0,0,FK
31/5/2021,FJI,OC,Fiji,-16.578041,178.416339,401,4,0,397,0,0,FJ
31/5/2021,FIN,EU,Finland,64.952416,26.068944,92488,0,0,92488,0,0,FI
31/5/2021,FRA,EU,France,46.232193,2.209667,5566214,108558,0,5457656,0,0,FR
31/5/2021,GUF,SA,French Guiana,3.951795,-53.07823,23763,116,0,23647,0,0,0
31/5/2021,PYF,OC,French Polynesia,-17.778572,-143.903496,18860,142,0,18718,0,0,PF
31/5/2021,GAB,AF,Gabon,-0.828097,11.598909,24365,150,0,24215,0,0,GA
31/5/2021,GMB,AF,Gambia,13.445411,-15.311436,5993,179,0,5814,0,0,GM
31/5/2021,GEO,AS,Georgia,42.319847,43.368055,343963,4773,0,339190,0,0,GE
31/5/2021,DEU,EU,Germany,51.165706,10.452764,3681126,88442,3486700,105984,0,0,DE
31/5/2021,GHA,AF,Ghana,7.955012,-1.03182,93898,785,0,93113,0,0,GH
31/5/2021,GIB,EU,Gibraltar,36.132235,-5.352273,4293,94,0,4199,0,0,GI
31/5/2021,GRC,EU,Greece,38.275283,23.810343,401301,12054,0,389247,0,0,EL
31/5/2021,GRL,NA,Greenland,71.702379,-42.177174,40,0,0,40,0,0,0
31/5/2021,GRD,NA,Grenada,12.152588,-61.689557,161,1,0,160,0,0,GD
31/5/2021,GLP,NA,Guadeloupe,16.192207,-61.272382,16874,255,0,16619,0,0,0
31/5/2021,GUM,OC,Guam,13.446472,144.786613,7918,139,0,7779,0,0,GU
31/5/2021,GTM,NA,Guatemala,15.776261,-90.229744,254225,8137,0,246088,0,0,GT
31/5/2021,GGY,EU,Guernsey,49.575693,-2.42318,823,17,0,806,0,0,GG
31/5/2021,GIN,AF,Guinea,9.934887,-11.283845,23172,161,0,23011,0,0,GN
31/5/2021,GUY,SA,Guyana,4.866324,-58.932507,16822,382,0,16440,0,0,GY
31/5/2021,HTI,NA,Haiti,19.054426,-73.045971,14711,319,0,14392,0,0,HT
31/5/2021,VAT,EU,Holy See,41.903859,12.452041,26,0,0,26,0,0,0
31/5/2021,HND,NA,Honduras,14.746333,-86.253097,236952,6296,0,230656,0,0,HN
31/5/2021,ISL,EU,Iceland,64.963942,-19.021169,6576,30,0,6546,0,0,IS
31/5/2021,IND,AS,India,21.125681,82.794998,28047534,329100,0,27718434,0,0,IN
31/5/2021,IDN,AS,Indonesia,-2.518722,118.015568,1821703,50578,0,1771125,0,0,ID
31/5/2021,IRQ,AS,Iraq,33.223737,43.685901,1197082,16351,0,1180731,0,0,IQ
31/5/2021,IMN,EU,Isle of Man,54.23782,-4.555111,1592,29,0,1563,0,0,IM
31/5/2021,ISR,AS,Israel,31.418388,35.073541,839468,6420,0,833048,0,0,IL
31/5/2021,ITA,EU,Italy,41.873987,12.564167,4217821,126128,3858019,233674,7515,1033,IT
31/5/2021,JAM,NA,Jamaica,18.115265,-77.27348,48467,945,0,47522,0,0,JM
31/5/2021,JPN,AS,Japan,34.886306,134.379711,744487,12967,0,731520,0,0,JP
31/5/2021,JEY,EU,Jersey,49.217445,-2.141056,3243,69,0,3174,0,0,JE
31/5/2021,JOR,AS,Jordan,31.276778,37.130583,735811,9452,0,726359,0,0,JO
31/5/2021,KAZ,AS,Kazakhstan,48.193764,66.902264,442935,7321,0,435614,0,0,KZ
31/5/2021,KEN,AF,Kenya,0.170945,37.903969,170647,3157,0,167490,0,0,KE
31/5/2021,KWT,AS,Kuwait,29.310278,47.493515,307812,1771,0,306041,0,0,KW
31/5/2021,KGZ,AS,Kyrgyzstan,41.205528,74.779888,104729,1808,0,102921,0,0,KG
31/5/2021,LVA,EU,Latvia,56.875584,24.607722,133199,2376,0,130823,0,0,LV
31/5/2021,LBN,AS,Lebanon,33.872639,35.876736,540277,7723,0,532554,0,0,LB
31/5/2021,LSO,AF,Lesotho,-29.620511,28.247414,10831,326,0,10505,0,0,LS
31/5/2021,LBR,AF,Liberia,6.452424,-9.428598,2179,86,0,2093,0,0,LR
31/5/2021,LBY,AF,Libya,26.338522,17.268816,185181,3125,0,182056,0,0,LY
31/5/2021,LIE,EU,Liechtenstein,47.164696,9.555,3103,57,0,3046,0,0,LI
31/5/2021,LTU,EU,Lithuania,55.174112,23.906736,274776,4276,256176,14324,0,0,LT
31/5/2021,LUX,EU,Luxembourg,49.815764,6.131514,69983,817,0,69166,0,0,LU
31/5/2021,MDG,AF,Madagascar,-18.777192,46.854328,41266,835,0,40431,0,0,MG
31/5/2021,MWI,AF,Malawi,-13.24627,34.295385,34335,1155,0,33180,0,0,MW
31/5/2021,MYS,AS,Malaysia,4.109319,109.455475,565533,2729,0,562804,0,0,MY
31/5/2021,MDV,AS,Maldives,3.202833,73.165249,64396,161,0,64235,0,0,MV
31/5/2021,MLI,AF,Mali,17.579757,-3.998823,14265,517,0,13748,0,0,ML
31/5/2021,MLT,EU,Malta,35.946151,14.384612,30535,419,30050,66,0,0,MT
31/5/2021,MHL,OC,Marshall Islands,10.10382,168.728363,4,0,0,4,0,0,0
31/5/2021,MTQ,NA,Martinique,14.635541,-61.022814,11979,95,0,11884,0,0,0
31/5/2021,MRT,AF,Mauritania,21.00681,-10.947098,19494,463,0,19031,0,0,MR
31/5/2021,MUS,AF,Mauritius,-15.422486,60.006449,1393,17,0,1376,0,0,MU
31/5/2021,MYT,AF,Mayotte,-12.824511,45.165455,19325,173,0,19152,0,0,0
31/5/2021,MEX,NA,Mexico,23.624813,-102.57867,2411503,223455,0,2188048,0,0,MX
31/5/2021,MCO,EU,Monaco,43.738348,7.424451,2504,32,0,2472,0,0,MC
31/5/2021,MNG,AS,Mongolia,46.860945,103.836986,57512,272,0,57240,0,0,MN
31/5/2021,MNE,EU,Montenegro,42.710152,19.410069,99623,1584,0,98039,100,0,ME
31/5/2021,MSR,NA,Montserrat,16.749415,-62.192741,20,1,0,19,0,0,MS
31/5/2021,MAR,AF,Morocco,31.792306,-7.080168,519108,9143,0,509965,0,0,MA
31/5/2021,MOZ,AF,Mozambique,-18.670284,35.530157,70780,836,0,69944,0,0,MZ
31/5/2021,NAM,AF,Namibia,-22.965662,18.486165,55141,824,0,54317,0,0,NA
31/5/2021,NPL,AS,Nepal,28.395056,84.127803,561302,7386,0,553916,0,0,NP
31/5/2021,NLD,EU,Netherlands,52.133057,5.29525,1649460,17623,0,1631837,30401,0,NL
31/5/2021,NCL,OC,New Caledonia,-21.123889,165.846901,128,0,0,128,0,0,NC
31/5/2021,NZL,OC,New Zealand,-40.9006,174.886,2317,26,0,2291,0,0,NZ
31/5/2021,NIC,NA,Nicaragua,12.866726,-85.214298,5833,186,0,5647,0,0,NI
31/5/2021,NER,AF,Niger,17.611,8.080946,5410,192,0,5218,0,0,NE
31/5/2021,NGA,AF,Nigeria,9.084575,8.674252,166315,2071,0,164244,0,0,NG
31/5/2021,MKD,EU,North Macedonia,41.611,21.751417,155269,5408,0,149861,0,0,MK
31/5/2021,NOR,EU,Norway,64.583013,17.86411,122554,783,0,121771,4485,860,NO
31/5/2021,OMN,AS,Oman,21.516861,55.859291,216183,2334,0,213849,0,0,OM
31/5/2021,PAK,AS,Pakistan,30.441861,69.359766,918936,20736,0,898200,0,0,PK
31/5/2021,PAN,NA,Panama,8.41771,-80.112777,377428,6369,0,371059,0,0,PA
31/5/2021,PNG,OC,Papua New Guinea,-6.48825,148.403152,15910,162,0,15748,0,0,PG
31/5/2021,PRY,SA,Paraguay,-23.451389,-58.453215,350613,8987,0,341626,0,0,PY
31/5/2021,PER,SA,Peru,-9.181352,-75.002365,1951651,183470,0,1768181,0,0,PE
31/5/2021,PHL,AS,Philippines,12.881958,121.76654,1223617,20860,0,1202757,0,0,PH
31/5/2021,POL,EU,Poland,51.92275,19.136875,2872283,73745,2639689,158849,0,0,PL
31/5/2021,PRT,EU,Portugal,39.553444,-7.839319,848658,17023,0,831635,0,0,PT
31/5/2021,PRI,NA,Puerto Rico,18.223285,-66.592731,138579,2501,0,136078,0,0,PR
31/5/2021,QAT,AS,Qatar,25.318833,51.19693,217230,554,0,216676,0,0,QA
31/5/2021,REU,AF,Réunion,-21.114533,55.532062,24901,189,0,24712,0,0,0
31/5/2021,ROU,EU,Romania,45.947125,24.980514,1077274,30312,0,1046962,0,0,RO
31/5/2021,RUS,EU,Russian Fed.,61.523111,-74.9,5071917,121501,0,4950416,0,0,RU
31/5/2021,RWA,AF,Rwanda,-1.94708,29.876376,26918,352,0,26566,0,0,RW
31/5/2021,KNA,NA,Saint Kitts and Nevis,17.257731,-62.706413,68,0,0,68,0,0,KN
31/5/2021,LCA,NA,Saint Lucia,13.904011,-60.974176,5053,77,0,4976,0,0,LC
31/5/2021,SPM,NA,Saint Pierre and Miquelon,46.966164,-56.336825,25,0,0,25,0,0,0
31/5/2021,VCT,NA,Saint Vincent and the Grenadines,12.980909,-61.287392,2035,12,0,2023,0,0,VC
31/5/2021,WSM,OC,Samoa,-13.736573,-172.10717,1,0,0,1,0,0,0
31/5/2021,SMR,EU,San Marino,43.942973,12.460035,5090,90,0,5000,0,0,SM
31/5/2021,STP,AF,Sao Tome and Principe,0.863044,6.968272,2345,37,0,2308,0,0,ST
31/5/2021,SAU,AS,Saudi Arabia,23.886291,45.081139,449191,7347,0,441844,0,0,SA
31/5/2021,SEN,AF,Senegal,14.499454,-14.445562,41387,1138,0,40249,0,0,SN
31/5/2021,SRB,EU,Serbia,44.206802,20.911009,712224,6854,0,705370,0,0,RS
31/5/2021,SYC,AF,Seychelles,-7.018792,51.242138,11468,40,0,11428,0,0,SC
31/5/2021,SLE,AF,Sierra Leone,8.464806,-11.795935,4140,79,0,4061,0,0,SL
31/5/2021,SGP,AS,Singapore,1.364917,103.822872,62028,33,0,61995,0,0,SG
31/5/2021,SVK,EU,Slovakia,48.665639,19.709097,389690,12339,0,377351,356,46,SK
31/5/2021,SVN,EU,Slovenia,46.145528,14.974541,254045,4694,14127,235224,227,67,SI
31/5/2021,SLB,OC,Solomon Islands,-9.220083,161.244735,20,0,0,20,0,0,SB
31/5/2021,SOM,AF,Somalia,5.152149,46.199616,14660,769,0,13891,0,0,SO
31/5/2021,ZAF,AF,South Africa,-28.48322,24.676997,1662825,56439,0,1606386,0,0,ZA
31/5/2021,SSD,AF,South Sudan,7.856272,30.040413,10688,115,0,10573,0,0,SS
31/5/2021,ESP,EU,Spain,39.896027,-2.487694,3678390,79953,0,3598437,4858,1347,ES
31/5/2021,LKA,AS,Sri Lanka,7.874097,80.767098,186364,1484,0,184880,0,0,LK
31/5/2021,SDN,AF,Sudan,15.45847,30.217636,35495,2630,0,32865,0,0,SD
31/5/2021,SUR,SA,Suriname,3.917846,-56.032028,14515,288,0,14227,0,0,SR
31/5/2021,CHE,EU,Switzerland,46.815514,8.224472,687994,10870,96026,581098,495,124,CH
31/5/2021,SYR,AS,Syrian Arab Republic,34.814902,39.056126,24467,1766,0,22701,0,0,SY
31/5/2021,TJK,AS,Tajikistan,38.858194,71.26218,13714,91,0,13623,0,0,TJ
31/5/2021,THA,AS,Thailand,13.036597,101.492515,159792,1031,0,158761,0,0,TH
31/5/2021,TGO,AF,Togo,8.621697,0.829685,13457,125,0,13332,0,0,TG
31/5/2021,TTO,NA,Trinidad and Tobago,10.687223,-61.220852,23001,470,0,22531,0,0,TT
31/5/2021,TUN,AF,Tunisia,33.892166,9.561556,344688,12623,0,332065,0,0,TN
31/5/2021,TUR,AS,Turkey,38.961516,35.25175,5242911,47405,0,5195506,0,0,TR
31/5/2021,TCA,NA,Turks and Caicos Islands,21.692252,-71.803756,2412,17,0,2395,0,0,TC
31/5/2021,UGA,AF,Uganda,1.365188,32.304651,47147,362,0,46785,0,0,UG
31/5/2021,UKR,EU,Ukraine,48.379888,31.168139,2202494,50536,0,2151958,0,0,UA
31/5/2021,ARE,AS,United Arab Emirates,24.358745,53.982494,569073,1677,0,567396,0,0,AE
31/5/2021,GBR,EU,United Kingdom,54.633221,-3.432277,4487339,127782,0,4359557,0,0,UK
31/5/2021,USA,NA,United States of America,36.966428,-95.844032,32929178,588596,0,32340582,0,0,US
31/5/2021,VIR,NA,United States Virgin Islands,18.036736,-64.801704,3465,27,0,3438,0,0,VI
31/5/2021,URY,SA,Uruguay,-32.53152,-55.758328,288172,4176,0,283996,0,0,UY
31/5/2021,UZB,AS,Uzbekistan,41.379722,64.564459,100335,690,0,99645,0,0,UZ
31/5/2021,VUT,OC,Vanuatu,-16.661195,168.214882,3,0,0,3,0,0,VU
31/5/2021,YEM,AS,Yemen,15.555545,48.531539,6737,1320,0,5417,0,0,YE
31/5/2021,ZMB,AF,Zambia,-13.151917,27.852537,95050,1278,0,93772,0,0,ZM
31/5/2021,ZWE,AF,Zimbabwe,-19.013286,29.146667,38944,1594,0,37350,0,0,ZW
30/6/2021,AFG,AS,Afghanistan,33.930445,67.678945,118659,4871,0,113788,0,0,AF
30/6/2021,ALB,EU,Albania,41.156986,20.181222,132521,2456,130009,56,1,0,AL
30/6/2021,DZA,AF,Algeria,28.026875,1.65284,139229,3708,0,135521,0,0,DZ
30/6/2021,ASM,OC,American Samoa,-12.716089,-170.253983,0,0,0,0,0,0,0
30/6/2021,AND,EU,Andorra,42.542268,1.596865,13911,127,0,13784,0,0,AD
30/6/2021,AGO,AF,Angola,-11.209451,17.880669,38682,894,0,37788,0,0,AO
30/6/2021,AIA,NA,Anguilla,18.225119,-63.07213,109,0,0,109,0,0,AI
30/6/2021,ATG,NA,Antigua and Barbuda,17.363183,-61.789423,1263,42,0,1221,0,0,AG
30/6/2021,ARG,SA,Argentina,-38.421295,-63.587403,4423636,93142,0,4330494,0,0,AR
30/6/2021,ARM,AS,Armenia,40.066181,45.111108,225095,4514,0,220581,0,0,AM
30/6/2021,ABW,NA,Aruba,12.517713,-69.965112,11132,107,0,11025,0,0,AW
30/6/2021,AUS,OC,Australia,-26.853388,133.275154,30562,910,0,29652,0,0,AU
30/6/2021,AUT,EU,Austria,47.697542,13.349319,646271,10500,629628,6143,0,0,AT
30/6/2021,AZE,AS,Azerbaijan,40.147396,47.572098,335961,4973,0,330988,0,0,AZ
30/6/2021,BHS,NA,Bahamas,24.885993,-76.709892,12586,246,0,12340,0,0,BS
30/6/2021,BHR,AS,Bahrain,26.039722,50.559306,265643,1351,0,264292,0,0,BH
30/6/2021,BGD,AS,Bangladesh,23.68764,90.351002,913258,14503,0,898755,0,0,BD
30/6/2021,BRB,NA,Barbados,13.18355,-59.534649,4079,47,0,4032,0,0,BB
30/6/2021,BLR,EU,Belarus,53.711111,27.973847,417189,3143,0,414046,0,0,BY
30/6/2021,BLZ,NA,Belize,17.192929,-88.5009,13189,329,0,12860,0,0,BZ
30/6/2021,BEN,AF,Benin,9.322048,2.313138,8199,104,0,8095,0,0,BJ
30/6/2021,BMU,NA,Bermuda,32.320236,-64.774022,2514,33,0,2481,0,0,BM
30/6/2021,BTN,AS,Bhutan,27.515709,90.442455,2100,1,0,2099,0,0,BT
30/6/2021,BIH,EU,Bosnia and Herzegovina,43.892652,17.670584,205022,9665,183306,12051,0,0,BA
30/6/2021,BWA,AF,Botswana,-22.344029,24.680158,70071,1125,0,68946,0,0,BW
30/6/2021,BRA,SA,Brazil,-14.242915,-53.189267,18448402,514092,0,17934310,0,0,BR
30/6/2021,VGB,NA,British Virgin Islands,18.573601,-64.492065,298,1,0,297,0,0,VG
30/6/2021,BGR,EU,Bulgaria,42.729862,25.491667,421751,18049,0,403702,0,0,BG
30/6/2021,BFA,AF,Burkina Faso,12.24185,-1.55676,13479,168,0,13311,0,0,BF
30/6/2021,BDI,AF,Burundi,-3.387918,29.920395,5452,8,0,5444,0,0,BI
30/6/2021,CPV,AF,Cabo Verde,16.0026,-24.014095,32457,286,0,32171,0,0,CV
30/6/2021,KHM,AS,Cambodia,12.54775,104.98386,49255,575,0,48680,0,0,KH
30/6/2021,CMR,AF,Cameroon,7.365302,12.343439,80858,1324,0,79534,0,0,CM
30/6/2021,CAN,NA,Canada,62.393303,-96.818145,1414134,26238,0,1387896,0,0,CA
30/6/2021,CYM,NA,Cayman Islands,19.512365,-80.580025,614,2,0,612,0,0,KY
30/6/2021,CAF,AF,Central African Republic,6.614041,20.941759,7141,98,0,7043,0,0,CF
30/6/2021,TCD,AF,Chad,15.445718,18.738068,4951,174,0,4777,0,0,TD
30/6/2021,CHL,SA,Chile,-36.711951,-73.601704,1553774,32489,0,1521285,0,0,CL
30/6/2021,CHN,AS,China,34.668138,104.165802,118503,5490,0,113013,0,0,CN
30/6/2021,COL,SA,Colombia,4.577317,-74.298973,4187194,105326,0,4081868,0,0,CO
30/6/2021,COM,AF,Comoros,-11.875119,43.877007,4006,146,0,3860,0,0,KM
30/6/2021,CRI,NA,Costa Rica,9.624897,-84.253308,364304,4648,0,359656,0,0,CR
30/6/2021,HRV,EU,Croatia,44.48732,16.460306,359872,8206,0,351666,0,0,HR
30/6/2021,CUB,NA,Cuba,21.527062,-79.544601,188023,1270,0,186753,0,0,CU
30/6/2021,CUW,NA,Curaçao,12.209208,-68.945576,12332,126,0,12206,0,0,CW
30/6/2021,CYP,EU,Cyprus,35.167406,33.435499,76333,455,0,75878,1750,0,CY
30/6/2021,CZE,EU,Czech Republic,49.800901,15.478153,1667435,30304,1635643,1488,0,0,CZ
30/6/2021,DNK,EU,Denmark,56.155403,11.617223,293667,2534,288190,2943,55,0,DK
30/6/2021,DJI,AF,Djibouti,11.808375,42.595222,11602,155,0,11447,0,0,DJ
30/6/2021,DMA,NA,Dominica,15.416749,-61.36413,193,0,0,193,0,0,DM
30/6/2021,DOM,NA,Dominican Republic,18.736509,-70.161744,324364,3815,0,320549,0,0,DO
30/6/2021,ECU,SA,Ecuador,-1.779901,-78.131592,455743,21523,0,434220,0,0,EC
30/6/2021,EGY,AF,Egypt,26.696362,30.246486,281031,16148,0,264883,0,0,EG
30/6/2021,SLV,NA,El Salvador,13.796873,-88.910412,78766,2376,0,76390,0,0,SV
30/6/2021,GNQ,AF,Equatorial Guinea,1.633925,10.341295,8734,121,0,8613,0,0,GQ
30/6/2021,ERI,AF,Eritrea,15.18132,39.786709,5936,23,0,5913,0,0,ER
30/6/2021,EST,EU,Estonia,58.596209,25.023778,131064,0,0,131064,0,0,EE
30/6/2021,ETH,AF,Ethiopia,9.148086,40.493059,276037,4320,0,271717,0,0,ET
30/6/2021,FLK,SA,Falkland Islands (Malvinas),-51.800581,-59.528839,60,0,0,60,0,0,FK
30/6/2021,FJI,OC,Fiji,-16.578041,178.416339,4144,21,0,4123,0,0,FJ
30/6/2021,FIN,EU,Finland,64.952416,26.068944,95742,0,0,95742,0,0,FI
30/6/2021,FRA,EU,France,46.232193,2.209667,5662173,110137,0,5552036,0,0,FR
30/6/2021,GUF,SA,French Guiana,3.951795,-53.07823,27415,145,0,27270,0,0,0
30/6/2021,PYF,OC,French Polynesia,-17.778572,-143.903496,19003,142,0,18861,0,0,PF
30/6/2021,GAB,AF,Gabon,-0.828097,11.598909,24984,159,0,24825,0,0,GA
30/6/2021,GMB,AF,Gambia,13.445411,-15.311436,6079,181,0,5898,0,0,GM
30/6/2021,GEO,AS,Georgia,42.319847,43.368055,366078,5316,0,360762,0,0,GE
30/6/2021,DEU,EU,Germany,51.165706,10.452764,3727333,90819,3624200,12314,0,0,DE
30/6/2021,GHA,AF,Ghana,7.955012,-1.03182,95642,795,0,94847,0,0,GH
30/6/2021,GIB,EU,Gibraltar,36.132235,-5.352273,4346,94,0,4252,0,0,GI
30/6/2021,GRC,EU,Greece,38.275283,23.810343,421829,12695,0,409134,0,0,EL
30/6/2021,GRL,NA,Greenland,71.702379,-42.177174,50,0,0,50,0,0,0
30/6/2021,GRD,NA,Grenada,12.152588,-61.689557,162,1,0,161,0,0,GD
30/6/2021,GLP,NA,Guadeloupe,16.192207,-61.272382,17539,267,0,17272,0,0,0
30/6/2021,GUM,OC,Guam,13.446472,144.786613,8092,140,0,7952,0,0,GU
30/6/2021,GTM,NA,Guatemala,15.776261,-90.229744,292674,9147,0,283527,0,0,GT
30/6/2021,GGY,EU,Guernsey,49.575693,-2.42318,837,17,0,820,0,0,GG
30/6/2021,GIN,AF,Guinea,9.934887,-11.283845,23753,169,0,23584,0,0,GN
30/6/2021,GUY,SA,Guyana,4.866324,-58.932507,19891,466,0,19425,0,0,GY
30/6/2021,HTI,NA,Haiti,19.054426,-73.045971,18562,425,0,18137,0,0,HT
30/6/2021,VAT,EU,Holy See,41.903859,12.452041,26,0,0,26,0,0,0
30/6/2021,HND,NA,Honduras,14.746333,-86.253097,260331,6922,0,253409,0,0,HN
30/6/2021,HUN,EU,Hungary,47.164638,19.508944,808128,29992,738782,39354,126,23,HU
30/6/2021,ISL,EU,Iceland,64.963942,-19.021169,6649,30,0,6619,0,0,IS
30/6/2021,IND,AS,India,21.125681,82.794998,30362848,398454,0,29964394,0,0,IN
30/6/2021,IDN,AS,Indonesia,-2.518722,118.015568,2178272,58491,0,2119781,0,0,ID
30/6/2021,IRQ,AS,Iraq,33.223737,43.685901,1338604,17156,0,1321448,0,0,IQ
30/6/2021,IRL,EU,Ireland,53.41975,-8.240472,272336,4998,0,267338,14430,1543,IE
30/6/2021,IMN,EU,Isle of Man,54.23782,-4.555111,1609,29,0,1580,0,0,IM
30/6/2021,ISR,AS,Israel,31.418388,35.073541,841610,6429,0,835181,0,0,IL
30/6/2021,ITA,EU,Italy,41.873987,12.564167,4259909,127566,4081902,50441,1840,247,IT
30/6/2021,JAM,NA,Jamaica,18.115265,-77.27348,50080,1065,0,49015,0,0,JM
30/6/2021,JPN,AS,Japan,34.886306,134.379711,798159,14740,0,783419,0,0,JP
30/6/2021,JEY,EU,Jersey,49.217445,-2.141056,3456,69,0,3387,0,0,JE
30/6/2021,JOR,AS,Jordan,31.276778,37.130583,750886,9743,0,741143,0,0,JO
30/6/2021,KAZ,AS,Kazakhstan,48.193764,66.902264,475039,7666,0,467373,0,0,KZ
30/6/2021,KEN,AF,Kenya,0.170945,37.903969,183603,3621,0,179982,0,0,KE
30/6/2021,KWT,AS,Kuwait,29.310278,47.493515,354851,1961,0,352890,0,0,KW
30/6/2021,KGZ,AS,Kyrgyzstan,41.205528,74.779888,125003,2000,0,123003,0,0,KG
30/6/2021,LVA,EU,Latvia,56.875584,24.607722,137429,2513,0,134916,0,0,LV
30/6/2021,LBN,AS,Lebanon,33.872639,35.876736,544705,7848,0,536857,0,0,LB
30/6/2021,LSO,AF,Lesotho,-29.620511,28.247414,11344,329,0,11015,0,0,LS
30/6/2021,LBR,AF,Liberia,6.452424,-9.428598,3900,127,0,3773,0,0,LR
30/6/2021,LBY,AF,Libya,26.338522,17.268816,193238,3191,0,190047,0,0,LY
30/6/2021,LIE,EU,Liechtenstein,47.164696,9.555,3128,58,0,3070,0,0,LI
30/6/2021,LTU,EU,Lithuania,55.174112,23.906736,278809,4384,267725,6700,0,0,LT
30/6/2021,LUX,EU,Luxembourg,49.815764,6.131514,70895,818,0,70077,0,0,LU
30/6/2021,MDG,AF,Madagascar,-18.777192,46.854328,42194,909,0,41285,0,0,MG
30/6/2021,MWI,AF,Malawi,-13.24627,34.295385,35897,1194,0,34703,0,0,MW
30/6/2021,MYS,AS,Malaysia,4.109319,109.455475,745703,5108,0,740595,0,0,MY
30/6/2021,MDV,AS,Maldives,3.202833,73.165249,73660,210,0,73450,0,0,MV
30/6/2021,MLI,AF,Mali,17.579757,-3.998823,14423,526,0,13897,0,0,ML
30/6/2021,MLT,EU,Malta,35.946151,14.384612,30623,420,30158,45,0,0,MT
30/6/2021,MHL,OC,Marshall Islands,10.10382,168.728363,4,0,0,4,0,0,0
30/6/2021,MTQ,NA,Martinique,14.635541,-61.022814,12286,98,0,12188,0,0,0
30/6/2021,MRT,AF,Mauritania,21.00681,-10.947098,20747,487,0,20260,0,0,MR
30/6/2021,MUS,AF,Mauritius,-15.422486,60.006449,1898,18,0,1880,0,0,MU
30/6/2021,MYT,AF,Mayotte,-12.824511,45.165455,19412,174,0,19238,0,0,0
30/6/2021,MEX,NA,Mexico,23.624813,-102.57867,2507453,232608,0,2274845,0,0,MX
30/6/2021,MDA,EU,Moldova,46.979527,28.377195,256734,6194,249706,834,0,0,MD
30/6/2021,MCO,EU,Monaco,43.738348,7.424451,2576,33,0,2543,0,0,MC
30/6/2021,MNG,AS,Mongolia,46.860945,103.836986,113232,548,0,112684,0,0,MN
30/6/2021,MNE,EU,Montenegro,42.710152,19.410069,100252,1613,0,98639,32,0,ME
30/6/2021,MSR,NA,Montserrat,16.749415,-62.192741,20,1,0,19,0,0,MS
30/6/2021,MAR,AF,Morocco,31.792306,-7.080168,530585,9292,0,521293,0,0,MA
30/6/2021,MOZ,AF,Mozambique,-18.670284,35.530157,75828,872,0,74956,0,0,MZ
30/6/2021,NAM,AF,Namibia,-22.965662,18.486165,88553,1467,0,87086,0,0,NA
30/6/2021,NPL,AS,Nepal,28.395056,84.127803,638805,9112,0,629693,0,0,NP
30/6/2021,NLD,EU,Netherlands,52.133057,5.29525,1685000,17745,0,1667255,30875,0,NL
30/6/2021,NCL,OC,New Caledonia,-21.123889,165.846901,129,0,0,129,0,0,NC
30/6/2021,NZL,OC,New Zealand,-40.9006,174.886,2386,26,0,2360,0,0,NZ
30/6/2021,NIC,NA,Nicaragua,12.866726,-85.214298,6604,191,0,6413,0,0,NI
30/6/2021,NER,AF,Niger,17.611,8.080946,5488,193,0,5295,0,0,NE
30/6/2021,NGA,AF,Nigeria,9.084575,8.674252,167543,2120,0,165423,0,0,NG
30/6/2021,MKD,EU,North Macedonia,41.611,21.751417,155682,5484,0,150198,0,0,MK
30/6/2021,NOR,EU,Norway,64.583013,17.86411,128658,794,0,127864,4623,879,NO
30/6/2021,OMN,AS,Oman,21.516861,55.859291,266536,3056,0,263480,0,0,OM
30/6/2021,PAK,AS,Pakistan,30.441861,69.359766,956392,22254,0,934138,0,0,PK
30/6/2021,PAN,NA,Panama,8.41771,-80.112777,401332,6529,0,394803,0,0,PA
30/6/2021,PNG,OC,Papua New Guinea,-6.48825,148.403152,17190,174,0,17016,0,0,PG
30/6/2021,PRY,SA,Paraguay,-23.451389,-58.453215,419764,12641,0,407123,0,0,PY
30/6/2021,PER,SA,Peru,-9.181352,-75.002365,2049567,192163,0,1857404,0,0,PE
30/6/2021,PHL,AS,Philippines,12.881958,121.76654,1408058,24557,0,1383501,0,0,PH
30/6/2021,POL,EU,Poland,51.92275,19.136875,2879912,75021,2651787,153104,0,0,PL
30/6/2021,PRT,EU,Portugal,39.553444,-7.839319,877195,17092,0,860103,0,0,PT
30/6/2021,PRI,NA,Puerto Rico,18.223285,-66.592731,140021,2547,0,137474,0,0,PR
30/6/2021,QAT,AS,Qatar,25.318833,51.19693,221953,588,0,221365,0,0,QA
30/6/2021,REU,AF,Réunion,-21.114533,55.532062,30583,237,0,30346,0,0,0
30/6/2021,ROU,EU,Romania,45.947125,24.980514,1080374,33786,0,1046588,0,0,RO
30/6/2021,RUS,EU,Russian Fed.,61.523111,-74.9,5514599,135214,0,5379385,0,0,RU
30/6/2021,RWA,AF,Rwanda,-1.94708,29.876376,37384,427,0,36957,0,0,RW
30/6/2021,LCA,NA,Saint Lucia,13.904011,-60.974176,5284,84,0,5200,0,0,LC
30/6/2021,SPM,NA,Saint Pierre and Miquelon,46.966164,-56.336825,26,0,0,26,0,0,0
30/6/2021,VCT,NA,Saint Vincent and the Grenadines,12.980909,-61.287392,2219,12,0,2207,0,0,VC
30/6/2021,WSM,OC,Samoa,-13.736573,-172.10717,1,0,0,1,0,0,0
30/6/2021,SMR,EU,San Marino,43.942973,12.460035,5092,90,0,5002,0,0,SM
30/6/2021,STP,AF,Sao Tome and Principe,0.863044,6.968272,2366,37,0,2329,0,0,ST
30/6/2021,SAU,AS,Saudi Arabia,23.886291,45.081139,486106,7804,0,478302,0,0,SA
30/6/2021,SEN,AF,Senegal,14.499454,-14.445562,42957,1166,0,41791,0,0,SN
30/6/2021,SRB,EU,Serbia,44.206802,20.911009,716458,7043,0,709415,0,0,RS
30/6/2021,SYC,AF,Seychelles,-7.018792,51.242138,15579,68,0,15511,0,0,SC
30/6/2021,SLE,AF,Sierra Leone,8.464806,-11.795935,5495,98,0,5397,0,0,SL
30/6/2021,SGP,AS,Singapore,1.364917,103.822872,62563,36,0,62527,0,0,SG
30/6/2021,SVK,EU,Slovakia,48.665639,19.709097,391642,12510,0,379132,120,15,SK
30/6/2021,SVN,EU,Slovenia,46.145528,14.974541,257358,4749,14494,238115,66,16,SI
30/6/2021,SLB,OC,Solomon Islands,-9.220083,161.244735,20,0,0,20,0,0,SB
30/6/2021,SOM,AF,Somalia,5.152149,46.199616,14933,775,0,14158,0,0,SO
30/6/2021,ZAF,AF,South Africa,-28.48322,24.676997,1954466,60264,0,1894202,0,0,ZA
30/6/2021,SSD,AF,South Sudan,7.856272,30.040413,10834,117,0,10717,0,0,SS
30/6/2021,ESP,EU,Spain,39.896027,-2.487694,3808960,80875,0,3728085,2375,601,ES
30/6/2021,LKA,AS,Sri Lanka,7.874097,80.767098,257225,2973,0,254252,0,0,LK
30/6/2021,SDN,AF,Sudan,15.45847,30.217636,36658,2754,0,33904,0,0,SD
30/6/2021,SUR,SA,Suriname,3.917846,-56.032028,21360,512,0,20848,0,0,SR
30/6/2021,SWE,EU,Sweden,62.199806,17.637493,1090553,14630,0,1075923,0,7583,SE
30/6/2021,CHE,EU,Switzerland,46.815514,8.224472,695529,10940,106317,578272,128,37,CH
30/6/2021,SYR,AS,Syrian Arab Republic,34.814902,39.056126,25479,1873,0,23606,0,0,SY
30/6/2021,TJK,AS,Tajikistan,38.858194,71.26218,13884,91,0,13793,0,0,TJ
30/6/2021,THA,AS,Thailand,13.036597,101.492515,259301,2023,0,257278,0,0,TH
30/6/2021,TGO,AF,Togo,8.621697,0.829685,13881,129,0,13752,0,0,TG
30/6/2021,TTO,NA,Trinidad and Tobago,10.687223,-61.220852,32343,822,0,31521,0,0,TT
30/6/2021,TUN,AF,Tunisia,33.892166,9.561556,414182,14843,0,399339,0,0,TN
30/6/2021,TUR,AS,Turkey,38.961516,35.25175,5420156,49687,0,5370469,0,0,TR
30/6/2021,TCA,NA,Turks and Caicos Islands,21.692252,-71.803756,2424,18,0,2406,0,0,TC
30/6/2021,UGA,AF,Uganda,1.365188,32.304651,79434,989,0,78445,0,0,UG
30/6/2021,UKR,EU,Ukraine,48.379888,31.168139,2235096,52340,0,2182756,0,0,UA
30/6/2021,ARE,AS,United Arab Emirates,24.358745,53.982494,631160,1807,0,629353,0,0,AE
30/6/2021,GBR,EU,United Kingdom,54.633221,-3.432277,4800907,128140,0,4672767,0,0,UK
30/6/2021,USA,NA,United States of America,36.966428,-95.844032,33317803,599089,0,32718714,0,0,US
30/6/2021,VIR,NA,United States Virgin Islands,18.036736,-64.801704,3850,30,0,3820,0,0,VI
30/6/2021,URY,SA,Uruguay,-32.53152,-55.758328,366915,5524,0,361391,0,0,UY
30/6/2021,UZB,AS,Uzbekistan,41.379722,64.564459,110677,736,0,109941,0,0,UZ
30/6/2021,VUT,OC,Vanuatu,-16.661195,168.214882,3,0,0,3,0,0,VU
30/6/2021,YEM,AS,Yemen,15.555545,48.531539,6918,1361,0,5557,0,0,YE
30/6/2021,ZMB,AF,Zambia,-13.151917,27.852537,152056,2138,0,149918,0,0,ZM
30/6/2021,ZWE,AF,Zimbabwe,-19.013286,29.146667,48533,1761,0,46772,0,0,ZW
31/7/2021,ALB,EU,Albania,41.156986,20.181222,133036,2457,130205,374,20,0,AL
31/7/2021,AUT,EU,Austria,47.697542,13.349319,655145,10536,636443,8166,87,32,AT
31/7/2021,CYP,EU,Cyprus,35.167406,33.435499,102223,500,0,101723,2173,0,CY
31/7/2021,CZE,EU,Czech Republic,49.800901,15.478153,1673694,30374,1640599,2721,0,0,CZ
31/7/2021,EST,EU,Estonia,58.596209,25.023778,133557,0,0,133557,0,0,EE
31/7/2021,FIN,EU,Finland,64.952416,26.068944,106802,0,0,106802,0,0,FI
31/7/2021,IRL,EU,Ireland,53.41975,-8.240472,300976,5035,0,295941,14430,1543,IE
31/7/2021,ITA,EU,Italy,41.873987,12.564167,4350028,128063,4134680,87285,2065,214,IT
31/7/2021,LVA,EU,Latvia,56.875584,24.607722,138863,2556,0,136307,0,0,LV
31/7/2021,LTU,EU,Lithuania,55.174112,23.906736,283016,4416,269323,9277,0,0,LT
31/7/2021,MLT,EU,Malta,35.946151,14.384612,34295,423,31629,2243,0,0,MT
31/7/2021,MDA,EU,Moldova,46.979527,28.377195,259478,6255,252051,1172,0,0,MD
31/7/2021,MNE,EU,Montenegro,42.710152,19.410069,101927,1630,0,100297,43,0,ME
31/7/2021,NLD,EU,Netherlands,52.133057,5.29525,1865511,17827,0,1847684,31346,0,NL
31/7/2021,POL,EU,Poland,51.92275,19.136875,2882939,75261,2653700,153978,0,0,PL
31/7/2021,RUS,EU,Russian Fed.,61.523111,-74.9,6265873,158563,0,6107310,0,0,RU
31/7/2021,SVK,EU,Slovakia,48.665639,19.709097,392647,12540,0,380107,46,6,SK
31/7/2021,SVN,EU,Slovenia,46.145528,14.974541,259272,4763,14587,239922,29,9,SI
31/7/2021,CHE,EU,Switzerland,46.815514,8.224472,711497,10963,107653,592881,173,38,CH
31/7/2021,GBR,EU,United Kingdom,54.633221,-3.432277,5894303,129654,0,5764649,0,0,UK
31/8/2021,AFG,AS,Afghanistan,33.930445,67.678945,153220,7118,0,146102,0,0,AF
31/8/2021,ALB,EU,Albania,41.156986,20.181222,146387,2498,133801,10088,95,0,AL
31/8/2021,DZA,AF,Algeria,28.026875,1.65284,195574,5240,0,190334,0,0,DZ
31/8/2021,AND,EU,Andorra,42.542268,1.596865,15033,130,0,14903,4,0,AD
31/8/2021,AGO,AF,Angola,-11.209451,17.880669,47331,1210,0,46121,0,0,AO
31/8/2021,ATG,NA,Antigua and Barbuda,17.363183,-61.789423,1713,44,0,1669,0,0,AG
31/8/2021,ARG,SA,Argentina,-38.421295,-63.587403,5173531,111383,0,5062148,0,0,AR
31/8/2021,ARM,AS,Armenia,40.066181,45.111108,242135,4844,0,237291,0,0,AM
31/8/2021,ABW,NA,Aruba,12.517713,-69.965112,14465,137,0,14328,0,0,AW
31/8/2021,AUS,OC,Australia,-26.853388,133.275154,52612,1002,0,51610,0,0,AU
31/8/2021,AUT,EU,Austria,47.697542,13.349319,685691,10570,654598,20523,393,133,AT
31/8/2021,AZE,AS,Azerbaijan,40.147396,47.572098,421103,5592,0,415511,0,0,AZ
31/8/2021,BHS,NA,Bahamas,24.885993,-76.709892,18139,381,0,17758,0,0,BS
31/8/2021,BHR,AS,Bahrain,26.039722,50.559306,272453,1388,0,271065,0,0,BH
31/8/2021,BGD,AS,Bangladesh,23.68764,90.351002,1500618,26195,0,1474423,0,0,BD
31/8/2021,BRB,NA,Barbados,13.18355,-59.534649,4931,48,0,4883,0,0,BB
31/8/2021,BLR,EU,Belarus,53.711111,27.973847,481532,3780,0,477752,0,0,BY
31/8/2021,BEL,EU,Belgium,50.499527,4.475402,1184664,25380,0,1159284,668,190,BE
31/8/2021,BLZ,NA,Belize,17.192929,-88.5009,16012,356,0,15656,0,0,BZ
31/8/2021,BEN,AF,Benin,9.322048,2.313138,13366,128,0,13238,0,0,BJ
31/8/2021,BMU,NA,Bermuda,32.320236,-64.774022,2844,33,0,2811,0,0,BM
31/8/2021,BTN,AS,Bhutan,27.515709,90.442455,2596,3,0,2593,0,0,BT
31/8/2021,BIH,EU,Bosnia and Herzegovina,43.892652,17.670584,213853,9803,0,204050,0,0,BA
31/8/2021,BWA,AF,Botswana,-22.344029,24.680158,156927,2261,0,154666,0,0,BW
31/8/2021,BRA,SA,Brazil,-14.242915,-53.189267,20741815,579308,0,20162507,0,0,BR
31/8/2021,VGB,NA,British Virgin Islands,18.573601,-64.492065,2568,37,0,2531,0,0,VG
31/8/2021,BGR,EU,Bulgaria,42.729862,25.491667,453689,18840,0,434849,0,0,BG
31/8/2021,BFA,AF,Burkina Faso,12.24185,-1.55676,13768,171,0,13597,0,0,BF
31/8/2021,CPV,AF,Cabo Verde,16.0026,-24.014095,35283,311,0,34972,0,0,CV
31/8/2021,KHM,AS,Cambodia,12.54775,104.98386,92616,1892,0,90724,0,0,KH
31/8/2021,CMR,AF,Cameroon,7.365302,12.343439,83425,1350,0,82075,0,0,CM
31/8/2021,CAN,NA,Canada,62.393303,-96.818145,1486436,26890,0,1459546,0,0,CA
31/8/2021,CYM,NA,Cayman Islands,19.512365,-80.580025,680,2,0,678,0,0,KY
31/8/2021,CAF,AF,Central African Republic,6.614041,20.941759,11296,100,0,11196,0,0,CF
31/8/2021,TCD,AF,Chad,15.445718,18.738068,4993,174,0,4819,0,0,TD
31/8/2021,CHL,SA,Chile,-36.711951,-73.601704,1638330,36923,0,1601407,0,0,CL
31/8/2021,CHN,AS,China,34.668138,104.165802,123043,5682,0,117361,0,0,CN
31/8/2021,COL,SA,Colombia,4.577317,-74.298973,4905258,124811,0,4780447,0,0,CO
31/8/2021,CRI,NA,Costa Rica,9.624897,-84.253308,459691,5471,0,454220,0,0,CR
31/8/2021,HRV,EU,Croatia,44.48732,16.460306,373998,8334,0,365664,0,0,HR
31/8/2021,CUB,NA,Cuba,21.527062,-79.544601,646513,5219,0,641294,0,0,CU
31/8/2021,CUW,NA,Curaçao,12.209208,-68.945576,15248,143,0,15105,0,0,CW
31/8/2021,CYP,EU,Cyprus,35.167406,33.435499,114131,594,0,113537,2354,0,CY
31/8/2021,CZE,EU,Czech Republic,49.800901,15.478153,1679476,30404,1647148,1924,0,0,CZ
31/8/2021,DNK,EU,Denmark,56.155403,11.617223,345693,2584,330463,12646,147,0,DK
31/8/2021,DJI,AF,Djibouti,11.808375,42.595222,11747,157,0,11590,0,0,DJ
31/8/2021,DMA,NA,Dominica,15.416749,-61.36413,1638,4,0,1634,0,0,DM
31/8/2021,DOM,NA,Dominican Republic,18.736509,-70.161744,350017,4007,0,346010,0,0,DO
31/8/2021,ECU,SA,Ecuador,-1.779901,-78.131592,501140,32232,0,468908,0,0,EC
31/8/2021,EGY,AF,Egypt,26.696362,30.246486,288162,16727,0,271435,0,0,EG
31/8/2021,SLV,NA,El Salvador,13.796873,-88.910412,94060,2909,0,91151,0,0,SV
31/8/2021,GNQ,AF,Equatorial Guinea,1.633925,10.341295,9326,124,0,9202,0,0,GQ
31/8/2021,ERI,AF,Eritrea,15.18132,39.786709,6642,38,0,6604,0,0,ER
31/8/2021,EST,EU,Estonia,58.596209,25.023778,141956,0,0,141956,0,0,EE
31/8/2021,ETH,AF,Ethiopia,9.148086,40.493059,306810,4660,0,302150,0,0,ET
31/8/2021,FJI,OC,Fiji,-16.578041,178.416339,46211,489,0,45722,0,0,FJ
31/8/2021,FIN,EU,Finland,64.952416,26.068944,127182,0,0,127182,0,0,FI
31/8/2021,FRA,EU,France,46.232193,2.209667,6555458,112647,0,6442811,0,0,FR
31/8/2021,GUF,SA,French Guiana,3.951795,-53.07823,34375,215,0,34160,0,0,0
31/8/2021,PYF,OC,French Polynesia,-17.778572,-143.903496,40178,423,0,39755,0,0,PF
31/8/2021,GAB,AF,Gabon,-0.828097,11.598909,25819,165,0,25654,0,0,GA
31/8/2021,GMB,AF,Gambia,13.445411,-15.311436,9698,319,0,9379,0,0,GM
31/8/2021,GEO,AS,Georgia,42.319847,43.368055,549811,7408,0,542403,0,0,GE
31/8/2021,DEU,EU,Germany,51.165706,10.452764,3942856,92200,3738000,112656,0,0,DE
31/8/2021,GHA,AF,Ghana,7.955012,-1.03182,118266,1017,0,117249,0,0,GH
31/8/2021,GIB,EU,Gibraltar,36.132235,-5.352273,5342,97,0,5245,0,0,GI
31/8/2021,GRC,EU,Greece,38.275283,23.810343,583658,13656,0,570002,0,0,EL
31/8/2021,GRD,NA,Grenada,12.152588,-61.689557,357,1,0,356,0,0,GD
31/8/2021,GLP,NA,Guadeloupe,16.192207,-61.272382,45393,508,0,44885,0,0,0
31/8/2021,GUM,OC,Guam,13.446472,144.786613,9960,145,0,9815,0,0,GU
31/8/2021,GTM,NA,Guatemala,15.776261,-90.229744,465799,11886,0,453913,0,0,GT
31/8/2021,GGY,EU,Guernsey,49.575693,-2.42318,1237,18,0,1219,0,0,GG
31/8/2021,GUY,SA,Guyana,4.866324,-58.932507,25323,611,0,24712,0,0,GY
31/8/2021,HTI,NA,Haiti,19.054426,-73.045971,20896,586,0,20310,0,0,HT
31/8/2021,HND,NA,Honduras,14.746333,-86.253097,335398,8832,0,326566,0,0,HN
31/8/2021,HUN,EU,Hungary,47.164638,19.508944,812337,30058,777445,4834,119,13,HU
31/8/2021,ISL,EU,Iceland,64.963942,-19.021169,10789,33,0,10756,0,0,IS
31/8/2021,IND,AS,India,21.125681,82.794998,32768880,438560,0,32330320,0,0,IN
31/8/2021,IDN,AS,Indonesia,-2.518722,118.015568,4089801,133023,0,3956778,0,0,ID
31/8/2021,IRQ,AS,Iraq,33.223737,43.685901,1881213,20764,0,1860449,0,0,IQ
31/8/2021,IRL,EU,Ireland,53.41975,-8.240472,352447,5092,0,347355,14430,1543,IE
31/8/2021,IMN,EU,Isle of Man,54.23782,-4.555111,6629,29,0,6600,0,0,IM
31/8/2021,ISR,AS,Israel,31.418388,35.073541,1064665,7043,0,1057622,0,0,IL
31/8/2021,ITA,EU,Italy,41.873987,12.564167,4539991,129221,4272845,137925,4796,544,IT
31/8/2021,JAM,NA,Jamaica,18.115265,-77.27348,67402,1510,0,65892,0,0,JM
31/8/2021,JPN,AS,Japan,34.886306,134.379711,1469327,15994,0,1453333,0,0,JP
31/8/2021,JEY,EU,Jersey,49.217445,-2.141056,9249,77,0,9172,0,0,JE
31/8/2021,JOR,AS,Jordan,31.276778,37.130583,796259,10398,0,785861,0,0,JO
31/8/2021,KAZ,AS,Kazakhstan,48.193764,66.902264,859203,12655,0,846548,0,0,KZ
31/8/2021,KEN,AF,Kenya,0.170945,37.903969,235298,4720,0,230578,0,0,KE
31/8/2021,KWT,AS,Kuwait,29.310278,47.493515,409736,2418,0,407318,0,0,KW
31/8/2021,KGZ,AS,Kyrgyzstan,41.205528,74.779888,175734,2528,0,173206,0,0,KG
31/8/2021,LVA,EU,Latvia,56.875584,24.607722,142637,2578,0,140059,0,0,LV
31/8/2021,LBN,AS,Lebanon,33.872639,35.876736,601226,8048,0,593178,0,0,LB
31/8/2021,LSO,AF,Lesotho,-29.620511,28.247414,14395,403,0,13992,0,0,LS
31/8/2021,LBR,AF,Liberia,6.452424,-9.428598,5594,245,0,5349,0,0,LR
31/8/2021,LBY,AF,Libya,26.338522,17.268816,307471,4213,0,303258,0,0,LY
31/8/2021,LIE,EU,Liechtenstein,47.164696,9.555,3379,58,0,3321,0,0,LI
31/8/2021,LTU,EU,Lithuania,55.174112,23.906736,299532,4569,281207,13756,0,0,LT
31/8/2021,LUX,EU,Luxembourg,49.815764,6.131514,75904,830,0,75074,0,0,LU
31/8/2021,MDG,AF,Madagascar,-18.777192,46.854328,42862,955,0,41907,0,0,MG
31/8/2021,MWI,AF,Malawi,-13.24627,34.295385,60386,2168,0,58218,0,0,MW
31/8/2021,MYS,AS,Malaysia,4.109319,109.455475,1725357,16382,0,1708975,0,0,MY
31/8/2021,MDV,AS,Maldives,3.202833,73.165249,80960,226,0,80734,0,0,MV
31/8/2021,MLI,AF,Mali,17.579757,-3.998823,14874,539,0,14335,0,0,ML
31/8/2021,MLT,EU,Malta,35.946151,14.384612,36171,441,34678,1052,0,0,MT
31/8/2021,MTQ,NA,Martinique,14.635541,-61.022814,35953,411,0,35542,0,0,0
31/8/2021,MRT,AF,Mauritania,21.00681,-10.947098,33432,711,0,32721,0,0,MR
31/8/2021,MUS,AF,Mauritius,-15.422486,60.006449,10676,31,0,10645,0,0,MU
31/8/2021,MYT,AF,Mayotte,-12.824511,45.165455,19804,175,0,19629,0,0,0
31/8/2021,MEX,NA,Mexico,23.624813,-102.57867,3335700,258165,0,3077535,0,0,MX
31/8/2021,MDA,EU,Moldova,46.979527,28.377195,267526,6401,257434,3691,0,0,MD
31/8/2021,MCO,EU,Monaco,43.738348,7.424451,3188,35,0,3153,0,0,MC
31/8/2021,MNG,AS,Mongolia,46.860945,103.836986,211275,931,0,210344,0,0,MN
31/8/2021,MNE,EU,Montenegro,42.710152,19.410069,115385,1724,0,113661,0,0,ME
31/8/2021,MSR,NA,Montserrat,16.749415,-62.192741,29,1,0,28,0,0,MS
31/8/2021,MAR,AF,Morocco,31.792306,-7.080168,856049,12540,0,843509,0,0,MA
31/8/2021,MOZ,AF,Mozambique,-18.670284,35.530157,146053,1853,0,144200,0,0,MZ
31/8/2021,NAM,AF,Namibia,-22.965662,18.486165,124618,3370,0,121248,0,0,NA
31/8/2021,NPL,AS,Nepal,28.395056,84.127803,762647,10750,0,751897,0,0,NP
31/8/2021,NLD,EU,Netherlands,52.133057,5.29525,1941055,18010,0,1923045,32163,0,NL
31/8/2021,NZL,OC,New Zealand,-40.9006,174.886,3213,26,0,3187,0,0,NZ
31/8/2021,NIC,NA,Nicaragua,12.866726,-85.214298,8867,199,0,8668,0,0,NI
31/8/2021,NER,AF,Niger,17.611,8.080946,5833,198,0,5635,0,0,NE
31/8/2021,NGA,AF,Nigeria,9.084575,8.674252,191805,2455,0,189350,0,0,NG
31/8/2021,MKD,EU,North Macedonia,41.611,21.751417,175624,5901,0,169723,0,0,MK
31/8/2021,NOR,EU,Norway,64.583013,17.86411,155372,814,0,154558,4879,919,NO
31/8/2021,OMN,AS,Oman,21.516861,55.859291,302239,4063,0,298176,0,0,OM
31/8/2021,PAK,AS,Pakistan,30.441861,69.359766,1156281,25670,0,1130611,0,0,PK
31/8/2021,PAN,NA,Panama,8.41771,-80.112777,456666,7046,0,449620,0,0,PA
31/8/2021,PRY,SA,Paraguay,-23.451389,-58.453215,458404,15723,0,442681,0,0,PY
31/8/2021,PER,SA,Peru,-9.181352,-75.002365,2149227,198209,0,1951018,0,0,PE
31/8/2021,PHL,AS,Philippines,12.881958,121.76654,1976202,33330,0,1942872,0,0,PH
31/8/2021,POL,EU,Poland,51.92275,19.136875,2888670,75345,2657084,156241,0,0,PL
31/8/2021,PRT,EU,Portugal,39.553444,-7.839319,1036019,17730,0,1018289,0,0,PT
31/8/2021,PRI,NA,Puerto Rico,18.223285,-66.592731,170217,2832,0,167385,0,0,PR
31/8/2021,QAT,AS,Qatar,25.318833,51.19693,232571,602,0,231969,0,0,QA
31/8/2021,REU,AF,Réunion,-21.114533,55.532062,48683,332,0,48351,0,0,0
31/8/2021,RUS,EU,Russian Fed.,61.523111,-74.9,6918965,183224,0,6735741,0,0,RU
31/8/2021,RWA,AF,Rwanda,-1.94708,29.876376,87131,1083,0,86048,0,0,RW
31/8/2021,KNA,NA,Saint Kitts and Nevis,17.257731,-62.706413,1053,3,0,1050,0,0,KN
31/8/2021,LCA,NA,Saint Lucia,13.904011,-60.974176,8111,103,0,8008,0,0,LC
31/8/2021,VCT,NA,Saint Vincent and the Grenadines,12.980909,-61.287392,2331,12,0,2319,0,0,VC
31/8/2021,SMR,EU,San Marino,43.942973,12.460035,5331,90,0,5241,0,0,SM
31/8/2021,STP,AF,Sao Tome and Principe,0.863044,6.968272,2593,37,0,2556,0,0,ST
31/8/2021,SAU,AS,Saudi Arabia,23.886291,45.081139,544225,8539,0,535686,0,0,SA
31/8/2021,SEN,AF,Senegal,14.499454,-14.445562,72753,1760,0,70993,0,0,SN
31/8/2021,SRB,EU,Serbia,44.206802,20.911009,759952,7278,0,752674,0,0,RS
31/8/2021,SYC,AF,Seychelles,-7.018792,51.242138,20038,102,0,19936,0,0,SC
31/8/2021,SLE,AF,Sierra Leone,8.464806,-11.795935,6367,121,0,6246,0,0,SL
31/8/2021,SGP,AS,Singapore,1.364917,103.822872,67459,55,0,67404,0,0,SG
31/8/2021,SVK,EU,Slovakia,48.665639,19.709097,394923,12548,0,382375,66,10,SK
31/8/2021,SVN,EU,Slovenia,46.145528,14.974541,267962,4778,14754,248430,159,37,SI
31/8/2021,SOM,AF,Somalia,5.152149,46.199616,17399,969,0,16430,0,0,SO
31/8/2021,ZAF,AF,South Africa,-28.48322,24.676997,2770575,81830,0,2688745,0,0,ZA
31/8/2021,SSD,AF,South Sudan,7.856272,30.040413,11436,120,0,11316,0,0,SS
31/8/2021,ESP,EU,Spain,39.896027,-2.487694,4855065,84340,0,4770725,6806,1571,ES
31/8/2021,LKA,AS,Sri Lanka,7.874097,80.767098,436081,8991,0,427090,0,0,LK
31/8/2021,SDN,AF,Sudan,15.45847,30.217636,37709,2791,0,34918,0,0,SD
31/8/2021,SUR,SA,Suriname,3.917846,-56.032028,28840,715,0,28125,0,0,SR
31/8/2021,SWE,EU,Sweden,62.199806,17.637493,1127917,14692,0,1113225,0,7723,SE
31/8/2021,CHE,EU,Switzerland,46.815514,8.224472,774000,11063,113704,649233,750,221,CH
31/8/2021,SYR,AS,Syrian Arab Republic,34.814902,39.056126,27779,2007,0,25772,0,0,SY
31/8/2021,TJK,AS,Tajikistan,38.858194,71.26218,17217,125,0,17092,0,0,TJ
31/8/2021,THA,AS,Thailand,13.036597,101.492515,1204729,11589,0,1193140,0,0,TH
31/8/2021,TGO,AF,Togo,8.621697,0.829685,21261,185,0,21076,0,0,TG
31/8/2021,TTO,NA,Trinidad and Tobago,10.687223,-61.220852,44481,1278,0,43203,0,0,TT
31/8/2021,TUN,AF,Tunisia,33.892166,9.561556,662752,23430,0,639322,0,0,TN
31/8/2021,TUR,AS,Turkey,38.961516,35.25175,6366438,56458,0,6309980,0,0,TR
31/8/2021,TCA,NA,Turks and Caicos Islands,21.692252,-71.803756,2650,20,0,2630,0,0,TC
31/8/2021,UKR,EU,Ukraine,48.379888,31.168139,2286296,53789,0,2232507,0,0,UA
31/8/2021,ARE,AS,United Arab Emirates,24.358745,53.982494,717374,2039,0,715335,0,0,AE
31/8/2021,GBR,EU,United Kingdom,54.633221,-3.432277,6789581,132535,0,6657046,0,0,UK
31/8/2021,USA,NA,United States of America,36.966428,-95.844032,38666040,632983,0,38033057,0,0,US
31/8/2021,VIR,NA,United States Virgin Islands,18.036736,-64.801704,5848,53,0,5795,0,0,VI
31/8/2021,URY,SA,Uruguay,-32.53152,-55.758328,384692,6029,0,378663,0,0,UY
31/8/2021,UZB,AS,Uzbekistan,41.379722,64.564459,156394,1082,0,155312,0,0,UZ
31/8/2021,YEM,AS,Yemen,15.555545,48.531539,7829,1469,0,6360,0,0,YE
31/8/2021,ZMB,AF,Zambia,-13.151917,27.852537,206145,3599,0,202546,0,0,ZM
31/8/2021,ZWE,AF,Zimbabwe,-19.013286,29.146667,124581,4416,0,120165,0,0,ZW
30/9/2021,AFG,AS,Afghanistan,33.930445,67.678945,155174,7204,0,147970,0,0,AF
